__time,/avgPoint/action,/avgPoint/color/a,/avgPoint/color/b,/avgPoint/color/g,/avgPoint/color/r,/avgPoint/frame_locked,/avgPoint/header/stamp/nanosec,/avgPoint/header/stamp/sec,/avgPoint/id,/avgPoint/lifetime/nanosec,/avgPoint/lifetime/sec,/avgPoint/mesh_use_embedded_materials,/avgPoint/pose/orientation/w,/avgPoint/pose/orientation/x,/avgPoint/pose/orientation/y,/avgPoint/pose/orientation/z,/avgPoint/pose/position/x,/avgPoint/pose/position/y,/avgPoint/pose/position/z,/avgPoint/scale/x,/avgPoint/scale/y,/avgPoint/scale/z,/avgPoint/texture/header/stamp/nanosec,/avgPoint/texture/header/stamp/sec,/avgPoint/type,/cf1/connection_statistics/header/stamp/nanosec,/cf1/connection_statistics/header/stamp/sec,/cf1/connection_statistics/stats[0]/ack_count,/cf1/connection_statistics/stats[0]/enqueued_count,/cf1/connection_statistics/stats[0]/receive_count,/cf1/connection_statistics/stats[0]/sent_count,/cf1/connection_statistics/stats[0]/sent_ping_count,/cf1/etc/header/stamp/nanosec,/cf1/etc/header/stamp/sec,/cf1/etc/timestamp,/cf1/etc/values[0],/cf1/etc/values[1],/cf1/etc/values[2],/cf1/lighthouseInfo/header/stamp/nanosec,/cf1/lighthouseInfo/header/stamp/sec,/cf1/lighthouseInfo/timestamp,/cf1/lighthouseInfo/values[0],/cf1/lighthouseInfo/values[1],/cf1/lighthouseInfo/values[2],/cf1/motorspeed/header/stamp/nanosec,/cf1/motorspeed/header/stamp/sec,/cf1/motorspeed/timestamp,/cf1/motorspeed/values[0],/cf1/motorspeed/values[1],/cf1/motorspeed/values[2],/cf1/motorspeed/values[3],/cf1/motorvars/header/stamp/nanosec,/cf1/motorvars/header/stamp/sec,/cf1/motorvars/timestamp,/cf1/motorvars/values[0],/cf1/motorvars/values[1],/cf1/motorvars/values[2],/cf1/motorvars/values[3],/cf1/pose/header/stamp/nanosec,/cf1/pose/header/stamp/sec,/cf1/pose/pose/orientation/w,/cf1/pose/pose/orientation/x,/cf1/pose/pose/orientation/y,/cf1/pose/pose/orientation/z,/cf1/pose/pose/position/x,/cf1/pose/pose/position/y,/cf1/pose/pose/position/z,/cf1/status/battery_voltage,/cf1/status/header/stamp/nanosec,/cf1/status/header/stamp/sec,/cf1/status/latency_unicast,/cf1/status/num_rx_broadcast,/cf1/status/num_rx_unicast,/cf1/status/num_tx_broadcast,/cf1/status/num_tx_unicast,/cf1/status/pm_state,/cf1/status/rssi,/cf1/status/supervisor_info
1714404474.307103,,,,,,,,,,,,,,,,,,,,,,,,,,,,,,,,,0.000000000,0.000000000,51258.000000000,0.000000000,0.000000000,0.000000000,,,,,,,,,,,,,,,,,,,,,,,,,,,,,,,,,,,,,,,,
1714404474.319128,,,,,,,,,,,,,,,,,,,,,,,,,,,,,,,,,,,,,,,0.000000000,0.000000000,51266.000000000,15.000000000,2.000000000,10.000000000,,,,,,,,,,,,,,,,,,,,,,,,,,,,,,,,,,
1714404474.324058,,,,,,,,,,,,,,,,,,,,,,,,,,,,,,,,,,,,,,,,,,,,,0.000000000,0.000000000,51272.000000000,0.000000000,0.000000000,0.000000000,0.000000000,,,,,,,,,,,,,,,,,,,,,,,,,,,
1714404474.327005,,,,,,,,,,,,,,,,,,,,,,,,,,,,,,,,,,,,,,,,,,,,,,,,,,,,0.000000000,0.000000000,51278.000000000,0.000000000,0.000000000,0.000000000,0.000000000,,,,,,,,,,,,,,,,,,,,
1714404474.334996,,,,,,,,,,,,,,,,,,,,,,,,,,,,,,,,,,,,,,,,,,,,,,,,,,,,,,,,,,,0.000000000,0.000000000,0.693269074,-0.005535082,0.009686395,0.720592439,-0.022833871,0.073632702,-0.067454956,,,,,,,,,,,
1714404474.407178,,,,,,,,,,,,,,,,,,,,,,,,,,,,,,,,,0.000000000,0.000000000,51358.000000000,0.000000000,0.000000000,0.000000000,,,,,,,,,,,,,,,,,,,,,,,,,,,,,,,,,,,,,,,,
1714404474.415090,,,,,,,,,,,,,,,,,,,,,,,,,,,,,,,,,,,,,,,0.000000000,0.000000000,51365.000000000,15.000000000,2.000000000,10.000000000,,,,,,,,,,,,,,,,,,,,,,,,,,,,,,,,,,
1714404474.420944,,,,,,,,,,,,,,,,,,,,,,,,,,,,,,,,,,,,,,,,,,,,,0.000000000,0.000000000,51372.000000000,0.000000000,0.000000000,0.000000000,0.000000000,,,,,,,,,,,,,,,,,,,,,,,,,,,
1714404474.426979,,,,,,,,,,,,,,,,,,,,,,,,,,,,,,,,,,,,,,,,,,,,,,,,,,,,0.000000000,0.000000000,51378.000000000,0.000000000,0.000000000,0.000000000,0.000000000,,,,,,,,,,,,,,,,,,,,
1714404474.434989,,,,,,,,,,,,,,,,,,,,,,,,,,,,,,,,,,,,,,,,,,,,,,,,,,,,,,,,,,,0.000000000,0.000000000,0.694652796,0.000000000,0.006918853,0.719311893,-0.001573283,0.080721334,-0.082781062,,,,,,,,,,,
1714404474.507026,,,,,,,,,,,,,,,,,,,,,,,,,,,,,,,,,0.000000000,0.000000000,51458.000000000,0.000000000,0.000000000,0.000000000,,,,,,,,,,,,,,,,,,,,,,,,,,,,,,,,,,,,,,,,
1714404474.514980,,,,,,,,,,,,,,,,,,,,,,,,,,,,,,,,,,,,,,,0.000000000,0.000000000,51465.000000000,15.000000000,2.000000000,10.000000000,,,,,,,,,,,,,,,,,,,,,,,,,,,,,,,,,,
1714404474.521954,,,,,,,,,,,,,,,,,,,,,,,,,,,,,,,,,,,,,,,,,,,,,0.000000000,0.000000000,51472.000000000,0.000000000,0.000000000,0.000000000,0.000000000,,,,,,,,,,,,,,,,,,,,,,,,,,,
1714404474.527954,,,,,,,,,,,,,,,,,,,,,,,,,,,,,,,,,,,,,,,,,,,,,,,,,,,,0.000000000,0.000000000,51478.000000000,0.000000000,0.000000000,0.000000000,0.000000000,,,,,,,,,,,,,,,,,,,,
1714404474.534971,,,,,,,,,,,,,,,,,,,,,,,,,,,,,,,,,,,,,,,,,,,,,,,,,,,,,,,,,,,0.000000000,0.000000000,0.694652796,-0.002767541,-0.004151312,0.719327867,-0.019453220,0.068821982,-0.061646007,,,,,,,,,,,
1714404474.606051,,,,,,,,,,,,,,,,,,,,,,,,,,,,,,,,,0.000000000,0.000000000,51558.000000000,0.000000000,0.000000000,0.000000000,,,,,,,,,,,,,,,,,,,,,,,,,,,,,,,,,,,,,,,,
1714404474.612954,,,,,,,,,,,,,,,,,,,,,,,,,,,,,,,,,,,,,,,0.000000000,0.000000000,51564.000000000,15.000000000,2.000000000,10.000000000,,,,,,,,,,,,,,,,,,,,,,,,,,,,,,,,,,
1714404474.621976,,,,,,,,,,,,,,,,,,,,,,,,,,,,,,,,,,,,,,,,,,,,,0.000000000,0.000000000,51573.000000000,0.000000000,0.000000000,0.000000000,0.000000000,,,,,,,,,,,,,,,,,,,,,,,,,,,
1714404474.628928,,,,,,,,,,,,,,,,,,,,,,,,,,,,,,,,,,,,,,,,,,,,,,,,,,,,0.000000000,0.000000000,51578.000000000,0.000000000,0.000000000,0.000000000,0.000000000,,,,,,,,,,,,,,,,,,,,
1714404474.633969,,,,,,,,,,,,,,,,,,,,,,,,,,,,,,,,,,,,,,,,,,,,,,,,,,,,,,,,,,,0.000000000,0.000000000,0.691885293,-0.004151312,-0.009686395,0.721930563,-0.026023682,0.061400458,-0.059264120,,,,,,,,,,,
1714404474.706083,,,,,,,,,,,,,,,,,,,,,,,,,,,,,,,,,0.000000000,0.000000000,51658.000000000,0.000000000,0.000000000,0.000000000,,,,,,,,,,,,,,,,,,,,,,,,,,,,,,,,,,,,,,,,
1714404474.713043,,,,,,,,,,,,,,,,,,,,,,,,,,,,,,,,,,,,,,,0.000000000,0.000000000,51664.000000000,15.000000000,2.000000000,10.000000000,,,,,,,,,,,,,,,,,,,,,,,,,,,,,,,,,,
1714404474.722041,,,,,,,,,,,,,,,,,,,,,,,,,,,,,,,,,,,,,,,,,,,,,0.000000000,0.000000000,51672.000000000,0.000000000,0.000000000,0.000000000,0.000000000,,,,,,,,,,,,,,,,,,,,,,,,,,,
1714404474.727122,,,,,,,,,,,,,,,,,,,,,,,,,,,,,,,,,,,,,,,,,,,,,,,,,,,,0.000000000,0.000000000,51678.000000000,0.000000000,0.000000000,0.000000000,0.000000000,,,,,,,,,,,,,,,,,,,,
1714404474.735000,,,,,,,,,,,,,,,,,,,,,,,,,,,,,,,,,,,,,,,,,,,,,,,,,,,,,,,,,,,0.000000000,0.000000000,0.690501511,-0.005535082,-0.012453935,0.723202527,-0.033223938,0.055615585,-0.054774269,,,,,,,,,,,
1714404474.811078,,,,,,,,,,,,,,,,,,,,,,,,,,,,,,,,,0.000000000,0.000000000,51758.000000000,0.000000000,0.000000000,0.000000000,,,,,,,,,,,,,,,,,,,,,,,,,,,,,,,,,,,,,,,,
1714404474.811968,,,,,,,,,,,,,,,,,,,,,,,,,,,,,,,,,,,,,,,0.000000000,0.000000000,51764.000000000,15.000000000,2.000000000,10.000000000,,,,,,,,,,,,,,,,,,,,,,,,,,,,,,,,,,
1714404474.822000,,,,,,,,,,,,,,,,,,,,,,,,,,,,,,,,,,,,,,,,,,,,,0.000000000,0.000000000,51772.000000000,0.000000000,0.000000000,0.000000000,0.000000000,,,,,,,,,,,,,,,,,,,,,,,,,,,
1714404474.826050,,,,,,,,,,,,,,,,,,,,,,,,,,,,,,,,,,,,,,,,,,,,,,,,,,,,0.000000000,0.000000000,51778.000000000,0.000000000,0.000000000,0.000000000,0.000000000,,,,,,,,,,,,,,,,,,,,
1714404474.833050,,,,,,,,,,,,,,,,,,,,,,,,,,,,,,,,,,,,,,,,,,,,,,,,,,,,,,,,,,,0.000000000,0.000000000,0.693269074,-0.005535082,-0.013837706,0.720524728,-0.035924688,0.053409766,-0.053824462,,,,,,,,,,,
1714404474.907133,,,,,,,,,,,,,,,,,,,,,,,,,,,,,,,,,0.000000000,0.000000000,51858.000000000,0.000000000,0.000000000,0.000000000,,,,,,,,,,,,,,,,,,,,,,,,,,,,,,,,,,,,,,,,
1714404474.914044,,,,,,,,,,,,,,,,,,,,,,,,,,,,,,,,,,,,,,,0.000000000,0.000000000,51866.000000000,15.000000000,2.000000000,10.000000000,,,,,,,,,,,,,,,,,,,,,,,,,,,,,,,,,,
1714404474.925009,,,,,,,,,,,,,,,,,,,,,,,,,,,,,,,,,,,,,,,,,,,,,0.000000000,0.000000000,51872.000000000,0.000000000,0.000000000,0.000000000,0.000000000,,,,,,,,,,,,,,,,,,,,,,,,,,,
1714404474.926078,,,,,,,,,,,,,,,,,,,,,,,,,,,,,,,,,,,,,,,,,,,,,,,,,,,,0.000000000,0.000000000,51878.000000000,0.000000000,0.000000000,0.000000000,0.000000000,,,,,,,,,,,,,,,,,,,,
1714404474.934071,,,,,,,,,,,,,,,,,,,,,,,,,,,,,,,,,,,,,,,,,,,,,,,,,,,,,,,,,,,0.000000000,0.000000000,0.689117730,-0.005535082,-0.013837706,0.724496126,-0.038583171,0.051065553,-0.052393321,,,,,,,,,,,
1714404475.006085,,,,,,,,,,,,,,,,,,,,,,,,,,,,,,,,,0.000000000,0.000000000,51958.000000000,0.000000000,0.000000000,0.000000000,,,,,,,,,,,,,,,,,,,,,,,,,,,,,,,,,,,,,,,,
1714404475.014010,,,,,,,,,,,,,,,,,,,,,,,,,,,,,,,,,,,,,,,0.000000000,0.000000000,51965.000000000,15.000000000,2.000000000,10.000000000,,,,,,,,,,,,,,,,,,,,,,,,,,,,,,,,,,
1714404475.022002,,,,,,,,,,,,,,,,,,,,,,,,,,,,,,,,,,,,,,,,,,,,,0.000000000,0.000000000,51972.000000000,0.000000000,0.000000000,0.000000000,0.000000000,,,,,,,,,,,,,,,,,,,,,,,,,,,
1714404475.026042,,,,,,,,,,,,,,,,,,,,,,,,,,,,,,,,,,,,,,,,,,,,,,,,,,,,0.000000000,0.000000000,51978.000000000,0.000000000,0.000000000,0.000000000,0.000000000,,,,,,,,,,,,,,,,,,,,
1714404475.033973,,,,,,,,,,,,,,,,,,,,,,,,,,,,,,,,,,,,,,,,,,,,,,,,,,,,,,,,,,,0.000000000,0.000000000,0.687734008,-0.005535082,-0.012453935,0.725834846,-0.039783251,0.050170023,-0.051699083,,,,,,,,,,,
1714404475.109062,,,,,,,,,,,,,,,,,,,,,,,,,,,,,,,,,0.000000000,0.000000000,52058.000000000,0.000000000,0.000000000,0.000000000,,,,,,,,,,,,,,,,,,,,,,,,,,,,,,,,,,,,,,,,
1714404475.113006,,,,,,,,,,,,,,,,,,,,,,,,,,,,,,,,,,,,,,,0.000000000,0.000000000,52064.000000000,15.000000000,2.000000000,10.000000000,,,,,,,,,,,,,,,,,,,,,,,,,,,,,,,,,,
1714404475.120960,,,,,,,,,,,,,,,,,,,,,,,,,,,,,,,,,,,,,,,,,,,,,0.000000000,0.000000000,52072.000000000,0.000000000,0.000000000,0.000000000,0.000000000,,,,,,,,,,,,,,,,,,,,,,,,,,,
1714404475.126951,,,,,,,,,,,,,,,,,,,,,,,,,,,,,,,,,,,,,,,,,,,,,,,,,,,,0.000000000,0.000000000,52078.000000000,0.000000000,0.000000000,0.000000000,0.000000000,,,,,,,,,,,,,,,,,,,,
1714404475.133954,,,,,,,,,,,,,,,,,,,,,,,,,,,,,,,,,,,,,,,,,,,,,,,,,,,,,,,,,,,0.000000000,0.000000000,0.689117730,-0.005535082,-0.012453935,0.724521220,-0.040500499,0.049297813,-0.052290361,,,,,,,,,,,
1714404475.207052,,,,,,,,,,,,,,,,,,,,,,,,,,,,,,,,,0.000000000,0.000000000,52158.000000000,0.000000000,0.000000000,0.000000000,,,,,,,,,,,,,,,,,,,,,,,,,,,,,,,,,,,,,,,,
1714404475.212074,,,,,,,,,,,,,,,,,,,,,,,,,,,,,,,,,,,,,,,0.000000000,0.000000000,52164.000000000,15.000000000,2.000000000,10.000000000,,,,,,,,,,,,,,,,,,,,,,,,,,,,,,,,,,
1714404475.222043,,,,,,,,,,,,,,,,,,,,,,,,,,,,,,,,,,,,,,,,,,,,,0.000000000,0.000000000,52172.000000000,0.000000000,0.000000000,0.000000000,0.000000000,,,,,,,,,,,,,,,,,,,,,,,,,,,
1714404475.225981,,,,,,,,,,,,,,,,,,,,,,,,,,,,,,,,,,,,,,,,,,,,,,,,,,,,0.000000000,0.000000000,52178.000000000,0.000000000,0.000000000,0.000000000,0.000000000,,,,,,,,,,,,,,,,,,,,
1714404475.235039,,,,,,,,,,,,,,,,,,,,,,,,,,,,,,,,,,,,,,,,,,,,,,,,,,,,,,,,,,,0.000000000,0.000000000,0.691885293,-0.005535082,-0.011070165,0.721901357,-0.040628500,0.049550027,-0.051084056,,,,,,,,,,,
1714404475.306130,,,,,,,,,,,,,,,,,,,,,,,,,,,,,,,,,0.000000000,0.000000000,52258.000000000,0.000000000,0.000000000,0.000000000,,,,,,,,,,,,,,,,,,,,,,,,,,,,,,,,,,,,,,,,
1714404475.316036,,,,,,,,,,,,,,,,,,,,,,,,,,,,,,,,,,,,,,,0.000000000,0.000000000,52264.000000000,15.000000000,2.000000000,10.000000000,,,,,,,,,,,,,,,,,,,,,,,,,,,,,,,,,,
1714404475.321027,,,,,,,,,,,,,,,,,,,,,,,,,,,,,,,,,,,,,,,,,,,,,0.000000000,0.000000000,52272.000000000,0.000000000,0.000000000,0.000000000,0.000000000,,,,,,,,,,,,,,,,,,,,,,,,,,,
1714404475.328992,,,,,,,,,,,,,,,,,,,,,,,,,,,,,,,,,,,,,,,,,,,,,,,,,,,,0.000000000,0.000000000,52278.000000000,0.000000000,0.000000000,0.000000000,0.000000000,,,,,,,,,,,,,,,,,,,,
1714404475.332994,,,,,,,,,,,,,,,,,,,,,,,,,,,,,,,,,,,,,,,,,,,,,,,,,,,,,,,,,,,0.000000000,0.000000000,0.693269074,-0.005535082,-0.009686395,0.720592439,-0.039701644,0.050100010,-0.051555742,,,,,,,,,,,
1714404475.406203,,,,,,,,,,,,,,,,,,,,,,,,,,,,,,,,,0.000000000,0.000000000,52358.000000000,0.000000000,0.000000000,0.000000000,,,,,,,,,,,,,,,,,,,,,,,,,,,,,,,,,,,,,,,,
1714404475.413017,,,,,,,,,,,,,,,,,,,,,,,,,,,,,,,,,,,,,,,0.000000000,0.000000000,52364.000000000,15.000000000,2.000000000,10.000000000,,,,,,,,,,,,,,,,,,,,,,,,,,,,,,,,,,
1714404475.420053,,,,,,,,,,,,,,,,,,,,,,,,,,,,,,,,,,,,,,,,,,,,,0.000000000,0.000000000,52372.000000000,0.000000000,0.000000000,0.000000000,0.000000000,,,,,,,,,,,,,,,,,,,,,,,,,,,
1714404475.428011,,,,,,,,,,,,,,,,,,,,,,,,,,,,,,,,,,,,,,,,,,,,,,,,,,,,0.000000000,0.000000000,52378.000000000,0.000000000,0.000000000,0.000000000,0.000000000,,,,,,,,,,,,,,,,,,,,
1714404475.433987,,,,,,,,,,,,,,,,,,,,,,,,,,,,,,,,,,,,,,,,,,,,,,,,,,,,,,,,,,,0.000000000,0.000000000,0.690501511,-0.005535082,-0.009686395,0.723244905,-0.038089901,0.051436093,-0.052363951,,,,,,,,,,,
1714404475.506172,,,,,,,,,,,,,,,,,,,,,,,,,,,,,,,,,0.000000000,0.000000000,52458.000000000,0.000000000,0.000000000,0.000000000,,,,,,,,,,,,,,,,,,,,,,,,,,,,,,,,,,,,,,,,
1714404475.512092,,,,,,,,,,,,,,,,,,,,,,,,,,,,,,,,,,,,,,,0.000000000,0.000000000,52464.000000000,15.000000000,2.000000000,10.000000000,,,,,,,,,,,,,,,,,,,,,,,,,,,,,,,,,,
1714404475.521020,,,,,,,,,,,,,,,,,,,,,,,,,,,,,,,,,,,,,,,,,,,,,0.000000000,0.000000000,52472.000000000,0.000000000,0.000000000,0.000000000,0.000000000,,,,,,,,,,,,,,,,,,,,,,,,,,,
1714404475.525936,,,,,,,,,,,,,,,,,,,,,,,,,,,,,,,,,,,,,,,,,,,,,,,,,,,,0.000000000,0.000000000,52478.000000000,0.000000000,0.000000000,0.000000000,0.000000000,,,,,,,,,,,,,,,,,,,,
1714404475.533051,,,,,,,,,,,,,,,,,,,,,,,,,,,,,,,,,,,,,,,,,,,,,,,,,,,,,,,,,,,0.000000000,0.000000000,0.691885293,0.002767541,-0.016605247,0.721811175,-0.044919170,0.016493771,-0.030697143,,,,,,,,,,,
1714404475.609071,,,,,,,,,,,,,,,,,,,,,,,,,,,,,,,,,0.000000000,0.000000000,52558.000000000,0.000000000,0.000000000,0.000000000,,,,,,,,,,,,,,,,,,,,,,,,,,,,,,,,,,,,,,,,
1714404475.611085,,,,,,,,,,,,,,,,,,,,,,,,,,,,,,,,,,,,,,,0.000000000,0.000000000,52564.000000000,15.000000000,2.000000000,10.000000000,,,,,,,,,,,,,,,,,,,,,,,,,,,,,,,,,,
1714404475.620074,,,,,,,,,,,,,,,,,,,,,,,,,,,,,,,,,,,,,,,,,,,,,0.000000000,0.000000000,52572.000000000,0.000000000,0.000000000,0.000000000,0.000000000,,,,,,,,,,,,,,,,,,,,,,,,,,,
1714404475.629011,,,,,,,,,,,,,,,,,,,,,,,,,,,,,,,,,,,,,,,,,,,,,,,,,,,,0.000000000,0.000000000,52578.000000000,0.000000000,0.000000000,0.000000000,0.000000000,,,,,,,,,,,,,,,,,,,,
1714404475.636058,,,,,,,,,,,,,,,,,,,,,,,,,,,,,,,,,,,,,,,,,,,,,,,,,,,,,,,,,,,0.000000000,0.000000000,0.696036637,0.011070165,-0.023524100,0.717535377,-0.047825038,-0.041853003,0.005269834,,,,,,,,,,,
1714404475.674137,,,,,,,,,,,,,,,,,,,,,,,,,,0.000000000,0.000000000,935.000000000,0.000000000,935.000000000,965.000000000,935.000000000,,,,,,,,,,,,,,,,,,,,,,,,,,,,,,,,,,,,,,,,,,,,,,
1714404475.706112,,,,,,,,,,,,,,,,,,,,,,,,,,,,,,,,,0.000000000,0.000000000,52658.000000000,0.000000000,0.000000000,0.000000000,,,,,,,,,,,,,,,,,,,,,,,,,,,,,,,,,,,,,,,,
1714404475.711010,,,,,,,,,,,,,,,,,,,,,,,,,,,,,,,,,,,,,,,0.000000000,0.000000000,52664.000000000,15.000000000,2.000000000,10.000000000,,,,,,,,,,,,,,,,,,,,,,,,,,,,,,,,,,
1714404475.721031,,,,,,,,,,,,,,,,,,,,,,,,,,,,,,,,,,,,,,,,,,,,,0.000000000,0.000000000,52672.000000000,0.000000000,0.000000000,0.000000000,0.000000000,,,,,,,,,,,,,,,,,,,,,,,,,,,
1714404475.728034,,,,,,,,,,,,,,,,,,,,,,,,,,,,,,,,,,,,,,,,,,,,,,,,,,,,0.000000000,0.000000000,52678.000000000,0.000000000,0.000000000,0.000000000,0.000000000,,,,,,,,,,,,,,,,,,,,
1714404475.734025,,,,,,,,,,,,,,,,,,,,,,,,,,,,,,,,,,,,,,,,,,,,,,,,,,,,,,,,,,,0.000000000,0.000000000,0.701571703,0.011070165,-0.023524100,0.712124407,-0.047364075,-0.079573303,0.023435038,,,,,,,,,,,
1714404475.739975,,,,,,,,,,,,,,,,,,,,,,,,,,,,,,,,,,,,,,,,,,,,,,,,,,,,,,,,,,,,,,,,,,,,4.064000130,0.000000000,0.000000000,2.000000000,0.000000000,0.000000000,0.000000000,963.000000000,0.000000000,54.000000000,14.000000000
1714404475.809074,,,,,,,,,,,,,,,,,,,,,,,,,,,,,,,,,0.000000000,0.000000000,52758.000000000,0.000000000,0.000000000,0.000000000,,,,,,,,,,,,,,,,,,,,,,,,,,,,,,,,,,,,,,,,
1714404475.813955,,,,,,,,,,,,,,,,,,,,,,,,,,,,,,,,,,,,,,,0.000000000,0.000000000,52766.000000000,15.000000000,2.000000000,10.000000000,,,,,,,,,,,,,,,,,,,,,,,,,,,,,,,,,,
1714404475.819999,,,,,,,,,,,,,,,,,,,,,,,,,,,,,,,,,,,,,,,,,,,,,0.000000000,0.000000000,52772.000000000,0.000000000,0.000000000,0.000000000,0.000000000,,,,,,,,,,,,,,,,,,,,,,,,,,,
1714404475.826029,,,,,,,,,,,,,,,,,,,,,,,,,,,,,,,,,,,,,,,,,,,,,,,,,,,,0.000000000,0.000000000,52778.000000000,0.000000000,0.000000000,0.000000000,0.000000000,,,,,,,,,,,,,,,,,,,,
1714404475.833035,,,,,,,,,,,,,,,,,,,,,,,,,,,,,,,,,,,,,,,,,,,,,,,,,,,,,,,,,,,0.000000000,0.000000000,0.697420359,-0.016605247,-0.016605247,0.716277480,-0.111873969,-0.007763727,0.014926772,,,,,,,,,,,
1714404475.908099,,,,,,,,,,,,,,,,,,,,,,,,,,,,,,,,,0.000000000,0.000000000,52858.000000000,0.000000000,0.000000000,0.000000000,,,,,,,,,,,,,,,,,,,,,,,,,,,,,,,,,,,,,,,,
1714404475.911990,,,,,,,,,,,,,,,,,,,,,,,,,,,,,,,,,,,,,,,0.000000000,0.000000000,52864.000000000,15.000000000,2.000000000,10.000000000,,,,,,,,,,,,,,,,,,,,,,,,,,,,,,,,,,
1714404475.922056,,,,,,,,,,,,,,,,,,,,,,,,,,,,,,,,,,,,,,,,,,,,,0.000000000,0.000000000,52872.000000000,0.000000000,0.000000000,0.000000000,0.000000000,,,,,,,,,,,,,,,,,,,,,,,,,,,
1714404475.928031,,,,,,,,,,,,,,,,,,,,,,,,,,,,,,,,,,,,,,,,,,,,,,,,,,,,0.000000000,0.000000000,52878.000000000,0.000000000,0.000000000,0.000000000,0.000000000,,,,,,,,,,,,,,,,,,,,
1714404475.933049,,,,,,,,,,,,,,,,,,,,,,,,,,,,,,,,,,,,,,,,,,,,,,,,,,,,,,,,,,,0.000000000,0.000000000,0.691885293,-0.011070165,-0.002767541,0.721917272,-0.062841408,0.027704768,-0.036069915,,,,,,,,,,,
1714404476.006180,,,,,,,,,,,,,,,,,,,,,,,,,,,,,,,,,0.000000000,0.000000000,52958.000000000,0.000000000,0.000000000,0.000000000,,,,,,,,,,,,,,,,,,,,,,,,,,,,,,,,,,,,,,,,
1714404476.012061,,,,,,,,,,,,,,,,,,,,,,,,,,,,,,,,,,,,,,,0.000000000,0.000000000,52965.000000000,15.000000000,2.000000000,10.000000000,,,,,,,,,,,,,,,,,,,,,,,,,,,,,,,,,,
1714404476.020033,,,,,,,,,,,,,,,,,,,,,,,,,,,,,,,,,,,,,,,,,,,,,0.000000000,0.000000000,52972.000000000,0.000000000,0.000000000,0.000000000,0.000000000,,,,,,,,,,,,,,,,,,,,,,,,,,,
1714404476.026049,,,,,,,,,,,,,,,,,,,,,,,,,,,,,,,,,,,,,,,,,,,,,,,,,,,,0.000000000,0.000000000,52978.000000000,0.000000000,0.000000000,0.000000000,0.000000000,,,,,,,,,,,,,,,,,,,,
1714404476.033056,,,,,,,,,,,,,,,,,,,,,,,,,,,,,,,,,,,,,,,,,,,,,,,,,,,,,,,,,,,0.000000000,0.000000000,0.690501511,-0.008302623,0.002767541,0.723277986,-0.042533513,0.050594721,-0.053604368,,,,,,,,,,,
1714404476.105044,,,,,,,,,,,,,,,,,,,,,,,,,,,,,,,,,0.000000000,0.000000000,53058.000000000,0.000000000,0.000000000,0.000000000,,,,,,,,,,,,,,,,,,,,,,,,,,,,,,,,,,,,,,,,
1714404476.112043,,,,,,,,,,,,,,,,,,,,,,,,,,,,,,,,,,,,,,,0.000000000,0.000000000,53064.000000000,15.000000000,2.000000000,10.000000000,,,,,,,,,,,,,,,,,,,,,,,,,,,,,,,,,,
1714404476.121044,,,,,,,,,,,,,,,,,,,,,,,,,,,,,,,,,,,,,,,,,,,,,0.000000000,0.000000000,53072.000000000,0.000000000,0.000000000,0.000000000,0.000000000,,,,,,,,,,,,,,,,,,,,,,,,,,,
1714404476.127071,,,,,,,,,,,,,,,,,,,,,,,,,,,,,,,,,,,,,,,,,,,,,,,,,,,,0.000000000,0.000000000,53078.000000000,0.000000000,0.000000000,0.000000000,0.000000000,,,,,,,,,,,,,,,,,,,,
1714404476.133027,,,,,,,,,,,,,,,,,,,,,,,,,,,,,,,,,,,,,,,,,,,,,,,,,,,,,,,,,,,0.000000000,0.000000000,0.690501511,-0.006918853,0.002767541,0.723292530,-0.032447260,0.060929384,-0.059820950,,,,,,,,,,,
1714404476.207174,,,,,,,,,,,,,,,,,,,,,,,,,,,,,,,,,0.000000000,0.000000000,53158.000000000,0.000000000,0.000000000,0.000000000,,,,,,,,,,,,,,,,,,,,,,,,,,,,,,,,,,,,,,,,
1714404476.212027,,,,,,,,,,,,,,,,,,,,,,,,,,,,,,,,,,,,,,,0.000000000,0.000000000,53164.000000000,15.000000000,2.000000000,10.000000000,,,,,,,,,,,,,,,,,,,,,,,,,,,,,,,,,,
1714404476.219959,,,,,,,,,,,,,,,,,,,,,,,,,,,,,,,,,,,,,,,,,,,,,0.000000000,0.000000000,53172.000000000,0.000000000,0.000000000,0.000000000,0.000000000,,,,,,,,,,,,,,,,,,,,,,,,,,,
1714404476.227048,,,,,,,,,,,,,,,,,,,,,,,,,,,,,,,,,,,,,,,,,,,,,,,,,,,,0.000000000,0.000000000,53178.000000000,0.000000000,0.000000000,0.000000000,0.000000000,,,,,,,,,,,,,,,,,,,,
1714404476.234007,,,,,,,,,,,,,,,,,,,,,,,,,,,,,,,,,,,,,,,,,,,,,,,,,,,,,,,,,,,0.000000000,0.000000000,0.690501511,0.012453935,-0.015221477,0.723063529,-0.037029892,-0.003649416,-0.006727340,,,,,,,,,,,
1714404476.307056,,,,,,,,,,,,,,,,,,,,,,,,,,,,,,,,,0.000000000,0.000000000,53258.000000000,0.000000000,0.000000000,0.000000000,,,,,,,,,,,,,,,,,,,,,,,,,,,,,,,,,,,,,,,,
1714404476.312039,,,,,,,,,,,,,,,,,,,,,,,,,,,,,,,,,,,,,,,0.000000000,0.000000000,53264.000000000,15.000000000,2.000000000,10.000000000,,,,,,,,,,,,,,,,,,,,,,,,,,,,,,,,,,
1714404476.321100,,,,,,,,,,,,,,,,,,,,,,,,,,,,,,,,,,,,,,,,,,,,,0.000000000,0.000000000,53272.000000000,0.000000000,0.000000000,0.000000000,0.000000000,,,,,,,,,,,,,,,,,,,,,,,,,,,
1714404476.326053,,,,,,,,,,,,,,,,,,,,,,,,,,,,,,,,,,,,,,,,,,,,,,,,,,,,0.000000000,0.000000000,53278.000000000,0.000000000,0.000000000,0.000000000,0.000000000,,,,,,,,,,,,,,,,,,,,
1714404476.332006,,,,,,,,,,,,,,,,,,,,,,,,,,,,,,,,,,,,,,,,,,,,,,,,,,,,,,,,,,,0.000000000,0.000000000,0.693269074,0.005535082,-0.017989017,0.720433056,-0.036663044,-0.029752104,0.023124253,,,,,,,,,,,
1714404476.406114,,,,,,,,,,,,,,,,,,,,,,,,,,,,,,,,,0.000000000,0.000000000,53358.000000000,0.000000000,0.000000000,0.000000000,,,,,,,,,,,,,,,,,,,,,,,,,,,,,,,,,,,,,,,,
1714404476.411123,,,,,,,,,,,,,,,,,,,,,,,,,,,,,,,,,,,,,,,0.000000000,0.000000000,53364.000000000,15.000000000,2.000000000,10.000000000,,,,,,,,,,,,,,,,,,,,,,,,,,,,,,,,,,
1714404476.419984,,,,,,,,,,,,,,,,,,,,,,,,,,,,,,,,,,,,,,,,,,,,,0.000000000,0.000000000,53372.000000000,0.000000000,0.000000000,0.000000000,0.000000000,,,,,,,,,,,,,,,,,,,,,,,,,,,
1714404476.426075,,,,,,,,,,,,,,,,,,,,,,,,,,,,,,,,,,,,,,,,,,,,,,,,,,,,0.000000000,0.000000000,53378.000000000,0.000000000,0.000000000,0.000000000,0.000000000,,,,,,,,,,,,,,,,,,,,
1714404476.432092,,,,,,,,,,,,,,,,,,,,,,,,,,,,,,,,,,,,,,,,,,,,,,,,,,,,,,,,,,,0.000000000,0.000000000,0.694652796,-0.004151312,-0.013837706,0.719200075,-0.042003583,-0.039092124,0.030998020,,,,,,,,,,,
1714404476.505097,,,,,,,,,,,,,,,,,,,,,,,,,,,,,,,,,0.000000000,0.000000000,53458.000000000,0.000000000,0.000000000,0.000000000,,,,,,,,,,,,,,,,,,,,,,,,,,,,,,,,,,,,,,,,
1714404476.511012,,,,,,,,,,,,,,,,,,,,,,,,,,,,,,,,,,,,,,,0.000000000,0.000000000,53464.000000000,15.000000000,2.000000000,8.000000000,,,,,,,,,,,,,,,,,,,,,,,,,,,,,,,,,,
1714404476.520058,,,,,,,,,,,,,,,,,,,,,,,,,,,,,,,,,,,,,,,,,,,,,0.000000000,0.000000000,53472.000000000,0.000000000,0.000000000,0.000000000,0.000000000,,,,,,,,,,,,,,,,,,,,,,,,,,,
1714404476.526031,,,,,,,,,,,,,,,,,,,,,,,,,,,,,,,,,,,,,,,,,,,,,,,,,,,,0.000000000,0.000000000,53478.000000000,0.000000000,0.000000000,0.000000000,0.000000000,,,,,,,,,,,,,,,,,,,,
1714404476.532063,,,,,,,,,,,,,,,,,,,,,,,,,,,,,,,,,,,,,,,,,,,,,,,,,,,,,,,,,,,0.000000000,0.000000000,0.700187922,-0.002767541,-0.013837706,0.713819087,-0.042762525,-0.056715582,0.046908401,,,,,,,,,,,
1714404476.605177,,,,,,,,,,,,,,,,,,,,,,,,,,,,,,,,,0.000000000,0.000000000,53558.000000000,0.000000000,0.000000000,0.000000000,,,,,,,,,,,,,,,,,,,,,,,,,,,,,,,,,,,,,,,,
1714404476.612112,,,,,,,,,,,,,,,,,,,,,,,,,,,,,,,,,,,,,,,0.000000000,0.000000000,53564.000000000,15.000000000,2.000000000,8.000000000,,,,,,,,,,,,,,,,,,,,,,,,,,,,,,,,,,
1714404476.619003,,,,,,,,,,,,,,,,,,,,,,,,,,,,,,,,,,,,,,,,,,,,,0.000000000,0.000000000,53572.000000000,0.000000000,0.000000000,0.000000000,0.000000000,,,,,,,,,,,,,,,,,,,,,,,,,,,
1714404476.628216,,,,,,,,,,,,,,,,,,,,,,,,,,,,,,,,,,,,,,,,,,,,,,,,,,,,0.000000000,0.000000000,53578.000000000,0.000000000,0.000000000,0.000000000,0.000000000,,,,,,,,,,,,,,,,,,,,
1714404476.637033,,,,,,,,,,,,,,,,,,,,,,,,,,,,,,,,,,,,,,,,,,,,,,,,,,,,,,,,,,,0.000000000,0.000000000,0.693269074,-0.015221477,0.004151312,0.720506072,0.000764459,0.019439304,0.070472918,,,,,,,,,,,
1714404476.674331,,,,,,,,,,,,,,,,,,,,,,,,,,0.000000000,0.000000000,954.000000000,0.000000000,954.000000000,992.000000000,955.000000000,,,,,,,,,,,,,,,,,,,,,,,,,,,,,,,,,,,,,,,,,,,,,,
1714404476.707128,,,,,,,,,,,,,,,,,,,,,,,,,,,,,,,,,0.000000000,0.000000000,53658.000000000,0.000000000,0.000000000,0.000000000,,,,,,,,,,,,,,,,,,,,,,,,,,,,,,,,,,,,,,,,
1714404476.716060,,,,,,,,,,,,,,,,,,,,,,,,,,,,,,,,,,,,,,,0.000000000,0.000000000,53664.000000000,15.000000000,2.000000000,10.000000000,,,,,,,,,,,,,,,,,,,,,,,,,,,,,,,,,,
1714404476.720126,,,,,,,,,,,,,,,,,,,,,,,,,,,,,,,,,,,,,,,,,,,,,0.000000000,0.000000000,53672.000000000,0.000000000,0.000000000,0.000000000,0.000000000,,,,,,,,,,,,,,,,,,,,,,,,,,,
1714404476.726076,,,,,,,,,,,,,,,,,,,,,,,,,,,,,,,,,,,,,,,,,,,,,,,,,,,,0.000000000,0.000000000,53678.000000000,0.000000000,0.000000000,0.000000000,0.000000000,,,,,,,,,,,,,,,,,,,,
1714404476.732067,,,,,,,,,,,,,,,,,,,,,,,,,,,,,,,,,,,,,,,,,,,,,,,,,,,,,,,,,,,0.000000000,0.000000000,0.690501511,-0.019372789,-0.002767541,0.723066211,-0.022838419,0.022945901,0.039223406,,,,,,,,,,,
1714404476.739154,,,,,,,,,,,,,,,,,,,,,,,,,,,,,,,,,,,,,,,,,,,,,,,,,,,,,,,,,,,,,,,,,,,,4.064000130,0.000000000,0.000000000,4.000000000,0.000000000,0.000000000,0.000000000,993.000000000,0.000000000,55.000000000,14.000000000
1714404476.805065,,,,,,,,,,,,,,,,,,,,,,,,,,,,,,,,,0.000000000,0.000000000,53758.000000000,0.000000000,0.000000000,0.000000000,,,,,,,,,,,,,,,,,,,,,,,,,,,,,,,,,,,,,,,,
1714404476.812074,,,,,,,,,,,,,,,,,,,,,,,,,,,,,,,,,,,,,,,0.000000000,0.000000000,53764.000000000,15.000000000,2.000000000,10.000000000,,,,,,,,,,,,,,,,,,,,,,,,,,,,,,,,,,
1714404476.819025,,,,,,,,,,,,,,,,,,,,,,,,,,,,,,,,,,,,,,,,,,,,,0.000000000,0.000000000,53772.000000000,0.000000000,0.000000000,0.000000000,0.000000000,,,,,,,,,,,,,,,,,,,,,,,,,,,
1714404476.829066,,,,,,,,,,,,,,,,,,,,,,,,,,,,,,,,,,,,,,,,,,,,,,,,,,,,0.000000000,0.000000000,53778.000000000,0.000000000,0.000000000,0.000000000,0.000000000,,,,,,,,,,,,,,,,,,,,
1714404476.831026,,,,,,,,,,,,,,,,,,,,,,,,,,,,,,,,,,,,,,,,,,,,,,,,,,,,,,,,,,,0.000000000,0.000000000,0.690501511,-0.016605247,-0.009686395,0.723075449,-0.038032588,0.017175233,0.017217023,,,,,,,,,,,
1714404476.907181,,,,,,,,,,,,,,,,,,,,,,,,,,,,,,,,,0.000000000,0.000000000,53858.000000000,0.000000000,0.000000000,0.000000000,,,,,,,,,,,,,,,,,,,,,,,,,,,,,,,,,,,,,,,,
1714404476.912062,,,,,,,,,,,,,,,,,,,,,,,,,,,,,,,,,,,,,,,0.000000000,0.000000000,53864.000000000,15.000000000,2.000000000,10.000000000,,,,,,,,,,,,,,,,,,,,,,,,,,,,,,,,,,
1714404476.922060,,,,,,,,,,,,,,,,,,,,,,,,,,,,,,,,,,,,,,,,,,,,,0.000000000,0.000000000,53872.000000000,0.000000000,0.000000000,0.000000000,0.000000000,,,,,,,,,,,,,,,,,,,,,,,,,,,
1714404476.927961,,,,,,,,,,,,,,,,,,,,,,,,,,,,,,,,,,,,,,,,,,,,,,,,,,,,0.000000000,0.000000000,53878.000000000,0.000000000,0.000000000,0.000000000,0.000000000,,,,,,,,,,,,,,,,,,,,
1714404476.933073,,,,,,,,,,,,,,,,,,,,,,,,,,,,,,,,,,,,,,,,,,,,,,,,,,,,,,,,,,,0.000000000,0.000000000,0.686350167,-0.004151312,-0.001383771,0.727258086,0.002193272,0.019330550,0.063397318,,,,,,,,,,,
1714404477.006146,,,,,,,,,,,,,,,,,,,,,,,,,,,,,,,,,0.000000000,0.000000000,53958.000000000,0.000000000,0.000000000,0.000000000,,,,,,,,,,,,,,,,,,,,,,,,,,,,,,,,,,,,,,,,
1714404477.011074,,,,,,,,,,,,,,,,,,,,,,,,,,,,,,,,,,,,,,,0.000000000,0.000000000,53964.000000000,15.000000000,2.000000000,10.000000000,,,,,,,,,,,,,,,,,,,,,,,,,,,,,,,,,,
1714404477.019061,,,,,,,,,,,,,,,,,,,,,,,,,,,,,,,,,,,,,,,,,,,,,0.000000000,0.000000000,53972.000000000,0.000000000,0.000000000,0.000000000,0.000000000,,,,,,,,,,,,,,,,,,,,,,,,,,,
1714404477.026223,,,,,,,,,,,,,,,,,,,,,,,,,,,,,,,,,,,,,,,,,,,,,,,,,,,,0.000000000,0.000000000,53978.000000000,0.000000000,0.000000000,0.000000000,0.000000000,,,,,,,,,,,,,,,,,,,,
1714404477.031102,,,,,,,,,,,,,,,,,,,,,,,,,,,,,,,,,,,,,,,,,,,,,,,,,,,,,,,,,,,0.000000000,0.000000000,0.686350167,-0.016605247,-0.011070165,0.726997375,-0.035526056,0.018175961,0.025257865,,,,,,,,,,,
1714404477.104091,,,,,,,,,,,,,,,,,,,,,,,,,,,,,,,,,0.000000000,0.000000000,54058.000000000,0.000000000,0.000000000,0.000000000,,,,,,,,,,,,,,,,,,,,,,,,,,,,,,,,,,,,,,,,
1714404477.110944,,,,,,,,,,,,,,,,,,,,,,,,,,,,,,,,,,,,,,,0.000000000,0.000000000,54064.000000000,15.000000000,2.000000000,10.000000000,,,,,,,,,,,,,,,,,,,,,,,,,,,,,,,,,,
1714404477.119161,,,,,,,,,,,,,,,,,,,,,,,,,,,,,,,,,,,,,,,,,,,,,0.000000000,0.000000000,54072.000000000,0.000000000,0.000000000,0.000000000,0.000000000,,,,,,,,,,,,,,,,,,,,,,,,,,,
1714404477.127020,,,,,,,,,,,,,,,,,,,,,,,,,,,,,,,,,,,,,,,,,,,,,,,,,,,,0.000000000,0.000000000,54078.000000000,0.000000000,0.000000000,0.000000000,0.000000000,,,,,,,,,,,,,,,,,,,,
1714404477.131195,,,,,,,,,,,,,,,,,,,,,,,,,,,,,,,,,,,,,,,,,,,,,,,,,,,,,,,,,,,0.000000000,0.000000000,0.687734008,-0.023524100,-0.008302623,0.725534022,-0.059469059,0.039480321,-0.046819780,,,,,,,,,,,
1714404477.206062,,,,,,,,,,,,,,,,,,,,,,,,,,,,,,,,,0.000000000,0.000000000,54158.000000000,0.000000000,0.000000000,0.000000000,,,,,,,,,,,,,,,,,,,,,,,,,,,,,,,,,,,,,,,,
1714404477.213120,,,,,,,,,,,,,,,,,,,,,,,,,,,,,,,,,,,,,,,0.000000000,0.000000000,54166.000000000,15.000000000,2.000000000,10.000000000,,,,,,,,,,,,,,,,,,,,,,,,,,,,,,,,,,
1714404477.219110,,,,,,,,,,,,,,,,,,,,,,,,,,,,,,,,,,,,,,,,,,,,,0.000000000,0.000000000,54172.000000000,0.000000000,0.000000000,0.000000000,0.000000000,,,,,,,,,,,,,,,,,,,,,,,,,,,
1714404477.225082,,,,,,,,,,,,,,,,,,,,,,,,,,,,,,,,,,,,,,,,,,,,,,,,,,,,0.000000000,0.000000000,54178.000000000,0.000000000,0.000000000,0.000000000,0.000000000,,,,,,,,,,,,,,,,,,,,
1714404477.231111,,,,,,,,,,,,,,,,,,,,,,,,,,,,,,,,,,,,,,,,,,,,,,,,,,,,,,,,,,,0.000000000,0.000000000,0.689117730,-0.013837706,-0.002767541,0.724511981,-0.047057070,0.051317409,-0.064358242,,,,,,,,,,,
1714404477.305107,,,,,,,,,,,,,,,,,,,,,,,,,,,,,,,,,0.000000000,0.000000000,54258.000000000,0.000000000,0.000000000,0.000000000,,,,,,,,,,,,,,,,,,,,,,,,,,,,,,,,,,,,,,,,
1714404477.311006,,,,,,,,,,,,,,,,,,,,,,,,,,,,,,,,,,,,,,,0.000000000,0.000000000,54264.000000000,15.000000000,2.000000000,10.000000000,,,,,,,,,,,,,,,,,,,,,,,,,,,,,,,,,,
1714404477.320060,,,,,,,,,,,,,,,,,,,,,,,,,,,,,,,,,,,,,,,,,,,,,0.000000000,0.000000000,54272.000000000,0.000000000,0.000000000,0.000000000,0.000000000,,,,,,,,,,,,,,,,,,,,,,,,,,,
1714404477.325011,,,,,,,,,,,,,,,,,,,,,,,,,,,,,,,,,,,,,,,,,,,,,,,,,,,,0.000000000,0.000000000,54278.000000000,0.000000000,0.000000000,0.000000000,0.000000000,,,,,,,,,,,,,,,,,,,,
1714404477.333099,,,,,,,,,,,,,,,,,,,,,,,,,,,,,,,,,,,,,,,,,,,,,,,,,,,,,,,,,,,0.000000000,0.000000000,0.694652796,-0.013837706,-0.002767541,0.719206750,-0.050061855,0.065456770,-0.091716789,,,,,,,,,,,
1714404477.405138,,,,,,,,,,,,,,,,,,,,,,,,,,,,,,,,,0.000000000,0.000000000,54358.000000000,0.000000000,0.000000000,0.000000000,,,,,,,,,,,,,,,,,,,,,,,,,,,,,,,,,,,,,,,,
1714404477.411065,,,,,,,,,,,,,,,,,,,,,,,,,,,,,,,,,,,,,,,0.000000000,0.000000000,54364.000000000,15.000000000,2.000000000,10.000000000,,,,,,,,,,,,,,,,,,,,,,,,,,,,,,,,,,
1714404477.421030,,,,,,,,,,,,,,,,,,,,,,,,,,,,,,,,,,,,,,,,,,,,,0.000000000,0.000000000,54372.000000000,0.000000000,0.000000000,0.000000000,0.000000000,,,,,,,,,,,,,,,,,,,,,,,,,,,
1714404477.426072,,,,,,,,,,,,,,,,,,,,,,,,,,,,,,,,,,,,,,,,,,,,,,,,,,,,0.000000000,0.000000000,54378.000000000,0.000000000,0.000000000,0.000000000,0.000000000,,,,,,,,,,,,,,,,,,,,
1714404477.432980,,,,,,,,,,,,,,,,,,,,,,,,,,,,,,,,,,,,,,,,,,,,,,,,,,,,,,,,,,,0.000000000,0.000000000,0.693269074,0.005535082,-0.019372789,0.720397115,-0.065368384,-0.010154891,-0.058122732,,,,,,,,,,,
1714404477.504117,,,,,,,,,,,,,,,,,,,,,,,,,,,,,,,,,0.000000000,0.000000000,54458.000000000,0.000000000,0.000000000,0.000000000,,,,,,,,,,,,,,,,,,,,,,,,,,,,,,,,,,,,,,,,
1714404477.509990,,,,,,,,,,,,,,,,,,,,,,,,,,,,,,,,,,,,,,,0.000000000,0.000000000,54464.000000000,15.000000000,2.000000000,10.000000000,,,,,,,,,,,,,,,,,,,,,,,,,,,,,,,,,,
1714404477.518058,,,,,,,,,,,,,,,,,,,,,,,,,,,,,,,,,,,,,,,,,,,,,0.000000000,0.000000000,54472.000000000,0.000000000,0.000000000,0.000000000,0.000000000,,,,,,,,,,,,,,,,,,,,,,,,,,,
1714404477.529096,,,,,,,,,,,,,,,,,,,,,,,,,,,,,,,,,,,,,,,,,,,,,,,,,,,,0.000000000,0.000000000,54482.000000000,0.000000000,0.000000000,0.000000000,0.000000000,,,,,,,,,,,,,,,,,,,,
1714404477.531034,,,,,,,,,,,,,,,,,,,,,,,,,,,,,,,,,,,,,,,,,,,,,,,,,,,,,,,,,,,0.000000000,0.000000000,0.687734008,0.001383771,-0.031826723,0.725263417,-0.112227447,-0.085514739,-0.054860443,,,,,,,,,,,
1714404477.609138,,,,,,,,,,,,,,,,,,,,,,,,,,,,,,,,,0.000000000,0.000000000,54558.000000000,0.000000000,0.000000000,0.000000000,,,,,,,,,,,,,,,,,,,,,,,,,,,,,,,,,,,,,,,,
1714404477.611995,,,,,,,,,,,,,,,,,,,,,,,,,,,,,,,,,,,,,,,0.000000000,0.000000000,54564.000000000,15.000000000,2.000000000,10.000000000,,,,,,,,,,,,,,,,,,,,,,,,,,,,,,,,,,
1714404477.618995,,,,,,,,,,,,,,,,,,,,,,,,,,,,,,,,,,,,,,,,,,,,,0.000000000,0.000000000,54572.000000000,0.000000000,0.000000000,0.000000000,0.000000000,,,,,,,,,,,,,,,,,,,,,,,,,,,
1714404477.625058,,,,,,,,,,,,,,,,,,,,,,,,,,,,,,,,,,,,,,,,,,,,,,,,,,,,0.000000000,0.000000000,54578.000000000,0.000000000,0.000000000,0.000000000,0.000000000,,,,,,,,,,,,,,,,,,,,
1714404477.632961,,,,,,,,,,,,,,,,,,,,,,,,,,,,,,,,,,,,,,,,,,,,,,,,,,,,,,,,,,,0.000000000,0.000000000,0.687734008,-0.004151312,-0.029059183,0.725369036,-0.133193836,-0.109878764,-0.063081577,,,,,,,,,,,
1714404477.674125,,,,,,,,,,,,,,,,,,,,,,,,,,0.000000000,0.000000000,918.000000000,0.000000000,918.000000000,950.000000000,919.000000000,,,,,,,,,,,,,,,,,,,,,,,,,,,,,,,,,,,,,,,,,,,,,,
1714404477.704054,,,,,,,,,,,,,,,,,,,,,,,,,,,,,,,,,0.000000000,0.000000000,54658.000000000,0.000000000,0.000000000,0.000000000,,,,,,,,,,,,,,,,,,,,,,,,,,,,,,,,,,,,,,,,
1714404477.711144,,,,,,,,,,,,,,,,,,,,,,,,,,,,,,,,,,,,,,,0.000000000,0.000000000,54664.000000000,15.000000000,2.000000000,10.000000000,,,,,,,,,,,,,,,,,,,,,,,,,,,,,,,,,,
1714404477.719074,,,,,,,,,,,,,,,,,,,,,,,,,,,,,,,,,,,,,,,,,,,,,0.000000000,0.000000000,54672.000000000,0.000000000,0.000000000,0.000000000,0.000000000,,,,,,,,,,,,,,,,,,,,,,,,,,,
1714404477.726041,,,,,,,,,,,,,,,,,,,,,,,,,,,,,,,,,,,,,,,,,,,,,,,,,,,,0.000000000,0.000000000,54678.000000000,0.000000000,0.000000000,0.000000000,0.000000000,,,,,,,,,,,,,,,,,,,,
1714404477.732035,,,,,,,,,,,,,,,,,,,,,,,,,,,,,,,,,,,,,,,,,,,,,,,,,,,,,,,,,,,0.000000000,0.000000000,0.689117730,-0.017989017,-0.009686395,0.724361300,-0.142994732,-0.074473403,-0.020312421,,,,,,,,,,,
1714404477.737022,,,,,,,,,,,,,,,,,,,,,,,,,,,,,,,,,,,,,,,,,,,,,,,,,,,,,,,,,,,,,,,,,,,,4.064000130,0.000000000,0.000000000,2.000000000,0.000000000,0.000000000,0.000000000,949.000000000,0.000000000,55.000000000,14.000000000
1714404477.806170,,,,,,,,,,,,,,,,,,,,,,,,,,,,,,,,,0.000000000,0.000000000,54758.000000000,0.000000000,0.000000000,0.000000000,,,,,,,,,,,,,,,,,,,,,,,,,,,,,,,,,,,,,,,,
1714404477.810109,,,,,,,,,,,,,,,,,,,,,,,,,,,,,,,,,,,,,,,0.000000000,0.000000000,54764.000000000,15.000000000,2.000000000,10.000000000,,,,,,,,,,,,,,,,,,,,,,,,,,,,,,,,,,
1714404477.818137,,,,,,,,,,,,,,,,,,,,,,,,,,,,,,,,,,,,,,,,,,,,,0.000000000,0.000000000,54772.000000000,0.000000000,0.000000000,0.000000000,0.000000000,,,,,,,,,,,,,,,,,,,,,,,,,,,
1714404477.826125,,,,,,,,,,,,,,,,,,,,,,,,,,,,,,,,,,,,,,,,,,,,,,,,,,,,0.000000000,0.000000000,54778.000000000,0.000000000,0.000000000,0.000000000,0.000000000,,,,,,,,,,,,,,,,,,,,
1714404477.831077,,,,,,,,,,,,,,,,,,,,,,,,,,,,,,,,,,,,,,,,,,,,,,,,,,,,,,,,,,,0.000000000,0.000000000,0.687734008,-0.016605247,0.016605247,0.725582838,-0.085272312,0.009685831,-0.015364345,,,,,,,,,,,
1714404477.909128,,,,,,,,,,,,,,,,,,,,,,,,,,,,,,,,,0.000000000,0.000000000,54858.000000000,0.000000000,0.000000000,0.000000000,,,,,,,,,,,,,,,,,,,,,,,,,,,,,,,,,,,,,,,,
1714404477.910036,,,,,,,,,,,,,,,,,,,,,,,,,,,,,,,,,,,,,,,0.000000000,0.000000000,54864.000000000,15.000000000,2.000000000,10.000000000,,,,,,,,,,,,,,,,,,,,,,,,,,,,,,,,,,
1714404477.919029,,,,,,,,,,,,,,,,,,,,,,,,,,,,,,,,,,,,,,,,,,,,,0.000000000,0.000000000,54872.000000000,0.000000000,0.000000000,0.000000000,0.000000000,,,,,,,,,,,,,,,,,,,,,,,,,,,
1714404477.925984,,,,,,,,,,,,,,,,,,,,,,,,,,,,,,,,,,,,,,,,,,,,,,,,,,,,0.000000000,0.000000000,54878.000000000,0.000000000,0.000000000,0.000000000,0.000000000,,,,,,,,,,,,,,,,,,,,
1714404477.930981,,,,,,,,,,,,,,,,,,,,,,,,,,,,,,,,,,,,,,,,,,,,,,,,,,,,,,,,,,,0.000000000,0.000000000,0.690501511,-0.009686395,0.024907870,0.722837090,-0.043119505,0.056560162,-0.041874912,,,,,,,,,,,
1714404478.006105,,,,,,,,,,,,,,,,,,,,,,,,,,,,,,,,,0.000000000,0.000000000,54958.000000000,0.000000000,0.000000000,0.000000000,,,,,,,,,,,,,,,,,,,,,,,,,,,,,,,,,,,,,,,,
1714404478.013039,,,,,,,,,,,,,,,,,,,,,,,,,,,,,,,,,,,,,,,0.000000000,0.000000000,54964.000000000,15.000000000,2.000000000,10.000000000,,,,,,,,,,,,,,,,,,,,,,,,,,,,,,,,,,
1714404478.019046,,,,,,,,,,,,,,,,,,,,,,,,,,,,,,,,,,,,,,,,,,,,,0.000000000,0.000000000,54972.000000000,0.000000000,0.000000000,0.000000000,0.000000000,,,,,,,,,,,,,,,,,,,,,,,,,,,
1714404478.027020,,,,,,,,,,,,,,,,,,,,,,,,,,,,,,,,,,,,,,,,,,,,,,,,,,,,0.000000000,0.000000000,54978.000000000,0.000000000,0.000000000,0.000000000,0.000000000,,,,,,,,,,,,,,,,,,,,
1714404478.032065,,,,,,,,,,,,,,,,,,,,,,,,,,,,,,,,,,,,,,,,,,,,,,,,,,,,,,,,,,,0.000000000,0.000000000,0.694652796,-0.006918853,0.024907870,0.718880534,-0.010072765,0.093484730,-0.060661774,,,,,,,,,,,
1714404478.104029,,,,,,,,,,,,,,,,,,,,,,,,,,,,,,,,,0.000000000,0.000000000,55058.000000000,0.000000000,0.000000000,0.000000000,,,,,,,,,,,,,,,,,,,,,,,,,,,,,,,,,,,,,,,,
1714404478.109969,,,,,,,,,,,,,,,,,,,,,,,,,,,,,,,,,,,,,,,0.000000000,0.000000000,55064.000000000,15.000000000,2.000000000,10.000000000,,,,,,,,,,,,,,,,,,,,,,,,,,,,,,,,,,
1714404478.119151,,,,,,,,,,,,,,,,,,,,,,,,,,,,,,,,,,,,,,,,,,,,,0.000000000,0.000000000,55072.000000000,0.000000000,0.000000000,0.000000000,0.000000000,,,,,,,,,,,,,,,,,,,,,,,,,,,
1714404478.124063,,,,,,,,,,,,,,,,,,,,,,,,,,,,,,,,,,,,,,,,,,,,,,,,,,,,0.000000000,0.000000000,55078.000000000,0.000000000,0.000000000,0.000000000,0.000000000,,,,,,,,,,,,,,,,,,,,
1714404478.131199,,,,,,,,,,,,,,,,,,,,,,,,,,,,,,,,,,,,,,,,,,,,,,,,,,,,,,,,,,,0.000000000,0.000000000,0.689117730,0.000000000,0.002767541,0.724644065,-0.026120795,0.054736998,-0.048706487,,,,,,,,,,,
1714404478.204044,,,,,,,,,,,,,,,,,,,,,,,,,,,,,,,,,0.000000000,0.000000000,55158.000000000,0.000000000,0.000000000,0.000000000,,,,,,,,,,,,,,,,,,,,,,,,,,,,,,,,,,,,,,,,
1714404478.209966,,,,,,,,,,,,,,,,,,,,,,,,,,,,,,,,,,,,,,,0.000000000,0.000000000,55164.000000000,15.000000000,2.000000000,10.000000000,,,,,,,,,,,,,,,,,,,,,,,,,,,,,,,,,,
1714404478.220000,,,,,,,,,,,,,,,,,,,,,,,,,,,,,,,,,,,,,,,,,,,,,0.000000000,0.000000000,55172.000000000,0.000000000,0.000000000,0.000000000,0.000000000,,,,,,,,,,,,,,,,,,,,,,,,,,,
1714404478.225934,,,,,,,,,,,,,,,,,,,,,,,,,,,,,,,,,,,,,,,,,,,,,,,,,,,,0.000000000,0.000000000,55178.000000000,0.000000000,0.000000000,0.000000000,0.000000000,,,,,,,,,,,,,,,,,,,,
1714404478.231158,,,,,,,,,,,,,,,,,,,,,,,,,,,,,,,,,,,,,,,,,,,,,,,,,,,,,,,,,,,0.000000000,0.000000000,0.687734008,-0.004151312,-0.002767541,0.725945652,-0.025341490,0.062790029,-0.058200724,,,,,,,,,,,
1714404478.306036,,,,,,,,,,,,,,,,,,,,,,,,,,,,,,,,,0.000000000,0.000000000,55258.000000000,0.000000000,0.000000000,0.000000000,,,,,,,,,,,,,,,,,,,,,,,,,,,,,,,,,,,,,,,,
1714404478.312972,,,,,,,,,,,,,,,,,,,,,,,,,,,,,,,,,,,,,,,0.000000000,0.000000000,55264.000000000,15.000000000,2.000000000,10.000000000,,,,,,,,,,,,,,,,,,,,,,,,,,,,,,,,,,
1714404478.319052,,,,,,,,,,,,,,,,,,,,,,,,,,,,,,,,,,,,,,,,,,,,,0.000000000,0.000000000,55272.000000000,0.000000000,0.000000000,0.000000000,0.000000000,,,,,,,,,,,,,,,,,,,,,,,,,,,
1714404478.326059,,,,,,,,,,,,,,,,,,,,,,,,,,,,,,,,,,,,,,,,,,,,,,,,,,,,0.000000000,0.000000000,55278.000000000,0.000000000,0.000000000,0.000000000,0.000000000,,,,,,,,,,,,,,,,,,,,
1714404478.332143,,,,,,,,,,,,,,,,,,,,,,,,,,,,,,,,,,,,,,,,,,,,,,,,,,,,,,,,,,,0.000000000,0.000000000,0.690501511,-0.005535082,-0.005535082,0.723288596,-0.020882916,0.071779028,-0.060045138,,,,,,,,,,,
1714404478.408025,,,,,,,,,,,,,,,,,,,,,,,,,,,,,,,,,0.000000000,0.000000000,55358.000000000,0.000000000,0.000000000,0.000000000,,,,,,,,,,,,,,,,,,,,,,,,,,,,,,,,,,,,,,,,
1714404478.410053,,,,,,,,,,,,,,,,,,,,,,,,,,,,,,,,,,,,,,,0.000000000,0.000000000,55364.000000000,15.000000000,2.000000000,10.000000000,,,,,,,,,,,,,,,,,,,,,,,,,,,,,,,,,,
1714404478.418962,,,,,,,,,,,,,,,,,,,,,,,,,,,,,,,,,,,,,,,,,,,,,0.000000000,0.000000000,55372.000000000,0.000000000,0.000000000,0.000000000,0.000000000,,,,,,,,,,,,,,,,,,,,,,,,,,,
1714404478.424022,,,,,,,,,,,,,,,,,,,,,,,,,,,,,,,,,,,,,,,,,,,,,,,,,,,,0.000000000,0.000000000,55378.000000000,0.000000000,0.000000000,0.000000000,0.000000000,,,,,,,,,,,,,,,,,,,,
1714404478.429960,,,,,,,,,,,,,,,,,,,,,,,,,,,,,,,,,,,,,,,,,,,,,,,,,,,,,,,,,,,0.000000000,0.000000000,0.691885293,-0.002767541,-0.008302623,0.721954405,-0.014525883,0.069642313,-0.072464637,,,,,,,,,,,
1714404478.506122,,,,,,,,,,,,,,,,,,,,,,,,,,,,,,,,,0.000000000,0.000000000,55458.000000000,0.000000000,0.000000000,0.000000000,,,,,,,,,,,,,,,,,,,,,,,,,,,,,,,,,,,,,,,,
1714404478.510034,,,,,,,,,,,,,,,,,,,,,,,,,,,,,,,,,,,,,,,0.000000000,0.000000000,55464.000000000,15.000000000,2.000000000,10.000000000,,,,,,,,,,,,,,,,,,,,,,,,,,,,,,,,,,
1714404478.520004,,,,,,,,,,,,,,,,,,,,,,,,,,,,,,,,,,,,,,,,,,,,,0.000000000,0.000000000,55472.000000000,0.000000000,0.000000000,0.000000000,0.000000000,,,,,,,,,,,,,,,,,,,,,,,,,,,
1714404478.527152,,,,,,,,,,,,,,,,,,,,,,,,,,,,,,,,,,,,,,,,,,,,,,,,,,,,0.000000000,0.000000000,55478.000000000,0.000000000,0.000000000,0.000000000,0.000000000,,,,,,,,,,,,,,,,,,,,
1714404478.532037,,,,,,,,,,,,,,,,,,,,,,,,,,,,,,,,,,,,,,,,,,,,,,,,,,,,,,,,,,,0.000000000,0.000000000,0.687734008,-0.005535082,-0.015221477,0.725782096,-0.034247972,0.055744719,-0.055190992,,,,,,,,,,,
1714404478.611160,,,,,,,,,,,,,,,,,,,,,,,,,,,,,,,,,0.000000000,0.000000000,55558.000000000,0.000000000,0.000000000,0.000000000,,,,,,,,,,,,,,,,,,,,,,,,,,,,,,,,,,,,,,,,
1714404478.612096,,,,,,,,,,,,,,,,,,,,,,,,,,,,,,,,,,,,,,,0.000000000,0.000000000,55564.000000000,15.000000000,2.000000000,10.000000000,,,,,,,,,,,,,,,,,,,,,,,,,,,,,,,,,,
1714404478.621054,,,,,,,,,,,,,,,,,,,,,,,,,,,,,,,,,,,,,,,,,,,,,0.000000000,0.000000000,55572.000000000,0.000000000,0.000000000,0.000000000,0.000000000,,,,,,,,,,,,,,,,,,,,,,,,,,,
1714404478.627026,,,,,,,,,,,,,,,,,,,,,,,,,,,,,,,,,,,,,,,,,,,,,,,,,,,,0.000000000,0.000000000,55579.000000000,0.000000000,0.000000000,0.000000000,0.000000000,,,,,,,,,,,,,,,,,,,,
1714404478.630175,,,,,,,,,,,,,,,,,,,,,,,,,,,,,,,,,,,,,,,,,,,,,,,,,,,,,,,,,,,0.000000000,0.000000000,0.689117730,-0.005535082,-0.016605247,0.724437952,-0.036643218,0.053184453,-0.053943209,,,,,,,,,,,
1714404478.674206,,,,,,,,,,,,,,,,,,,,,,,,,,0.000000000,0.000000000,944.000000000,0.000000000,944.000000000,976.000000000,946.000000000,,,,,,,,,,,,,,,,,,,,,,,,,,,,,,,,,,,,,,,,,,,,,,
1714404478.707127,,,,,,,,,,,,,,,,,,,,,,,,,,,,,,,,,0.000000000,0.000000000,55658.000000000,0.000000000,0.000000000,0.000000000,,,,,,,,,,,,,,,,,,,,,,,,,,,,,,,,,,,,,,,,
1714404478.713123,,,,,,,,,,,,,,,,,,,,,,,,,,,,,,,,,,,,,,,0.000000000,0.000000000,55664.000000000,15.000000000,2.000000000,10.000000000,,,,,,,,,,,,,,,,,,,,,,,,,,,,,,,,,,
1714404478.719082,,,,,,,,,,,,,,,,,,,,,,,,,,,,,,,,,,,,,,,,,,,,,0.000000000,0.000000000,55672.000000000,0.000000000,0.000000000,0.000000000,0.000000000,,,,,,,,,,,,,,,,,,,,,,,,,,,
1714404478.725027,,,,,,,,,,,,,,,,,,,,,,,,,,,,,,,,,,,,,,,,,,,,,,,,,,,,0.000000000,0.000000000,55678.000000000,0.000000000,0.000000000,0.000000000,0.000000000,,,,,,,,,,,,,,,,,,,,
1714404478.729971,,,,,,,,,,,,,,,,,,,,,,,,,,,,,,,,,,,,,,,,,,,,,,,,,,,,,,,,,,,0.000000000,0.000000000,0.694652796,-0.005535082,-0.016605247,0.719132185,-0.039521497,0.050542831,-0.053514220,,,,,,,,,,,
1714404478.737053,,,,,,,,,,,,,,,,,,,,,,,,,,,,,,,,,,,,,,,,,,,,,,,,,,,,,,,,,,,,,,,,,,,,4.064000130,0.000000000,0.000000000,3.000000000,0.000000000,0.000000000,0.000000000,973.000000000,0.000000000,55.000000000,14.000000000
1714404478.807086,,,,,,,,,,,,,,,,,,,,,,,,,,,,,,,,,0.000000000,0.000000000,55758.000000000,0.000000000,0.000000000,0.000000000,,,,,,,,,,,,,,,,,,,,,,,,,,,,,,,,,,,,,,,,
1714404478.810190,,,,,,,,,,,,,,,,,,,,,,,,,,,,,,,,,,,,,,,0.000000000,0.000000000,55764.000000000,15.000000000,2.000000000,10.000000000,,,,,,,,,,,,,,,,,,,,,,,,,,,,,,,,,,
1714404478.819074,,,,,,,,,,,,,,,,,,,,,,,,,,,,,,,,,,,,,,,,,,,,,0.000000000,0.000000000,55772.000000000,0.000000000,0.000000000,0.000000000,0.000000000,,,,,,,,,,,,,,,,,,,,,,,,,,,
1714404478.825052,,,,,,,,,,,,,,,,,,,,,,,,,,,,,,,,,,,,,,,,,,,,,,,,,,,,0.000000000,0.000000000,55778.000000000,0.000000000,0.000000000,0.000000000,0.000000000,,,,,,,,,,,,,,,,,,,,
1714404478.832043,,,,,,,,,,,,,,,,,,,,,,,,,,,,,,,,,,,,,,,,,,,,,,,,,,,,,,,,,,,0.000000000,0.000000000,0.696036637,-0.005535082,-0.015221477,0.717823565,-0.042029608,0.048376817,-0.049839858,,,,,,,,,,,
1714404478.903033,,,,,,,,,,,,,,,,,,,,,,,,,,,,,,,,,0.000000000,0.000000000,55858.000000000,0.000000000,0.000000000,0.000000000,,,,,,,,,,,,,,,,,,,,,,,,,,,,,,,,,,,,,,,,
1714404478.908981,,,,,,,,,,,,,,,,,,,,,,,,,,,,,,,,,,,,,,,0.000000000,0.000000000,55864.000000000,15.000000000,2.000000000,10.000000000,,,,,,,,,,,,,,,,,,,,,,,,,,,,,,,,,,
1714404478.920023,,,,,,,,,,,,,,,,,,,,,,,,,,,,,,,,,,,,,,,,,,,,,0.000000000,0.000000000,55872.000000000,0.000000000,0.000000000,0.000000000,0.000000000,,,,,,,,,,,,,,,,,,,,,,,,,,,
1714404478.925053,,,,,,,,,,,,,,,,,,,,,,,,,,,,,,,,,,,,,,,,,,,,,,,,,,,,0.000000000,0.000000000,55878.000000000,0.000000000,0.000000000,0.000000000,0.000000000,,,,,,,,,,,,,,,,,,,,
1714404478.928935,,,,,,,,,,,,,,,,,,,,,,,,,,,,,,,,,,,,,,,,,,,,,,,,,,,,,,,,,,,0.000000000,0.000000000,0.694652796,0.000000000,-0.019372789,0.719084263,-0.051585361,0.018687550,-0.033871997,,,,,,,,,,,
1714404479.006079,,,,,,,,,,,,,,,,,,,,,,,,,,,,,,,,,0.000000000,0.000000000,55958.000000000,0.000000000,0.000000000,0.000000000,,,,,,,,,,,,,,,,,,,,,,,,,,,,,,,,,,,,,,,,
1714404479.013036,,,,,,,,,,,,,,,,,,,,,,,,,,,,,,,,,,,,,,,0.000000000,0.000000000,55964.000000000,15.000000000,2.000000000,10.000000000,,,,,,,,,,,,,,,,,,,,,,,,,,,,,,,,,,
1714404479.019993,,,,,,,,,,,,,,,,,,,,,,,,,,,,,,,,,,,,,,,,,,,,,0.000000000,0.000000000,55972.000000000,0.000000000,0.000000000,0.000000000,0.000000000,,,,,,,,,,,,,,,,,,,,,,,,,,,
1714404479.023954,,,,,,,,,,,,,,,,,,,,,,,,,,,,,,,,,,,,,,,,,,,,,,,,,,,,0.000000000,0.000000000,55978.000000000,0.000000000,0.000000000,0.000000000,0.000000000,,,,,,,,,,,,,,,,,,,,
1714404479.031979,,,,,,,,,,,,,,,,,,,,,,,,,,,,,,,,,,,,,,,,,,,,,,,,,,,,,,,,,,,0.000000000,0.000000000,0.690501511,-0.006918853,-0.013837706,0.723165452,-0.048786681,0.037103627,-0.043546956,,,,,,,,,,,
1714404479.103092,,,,,,,,,,,,,,,,,,,,,,,,,,,,,,,,,0.000000000,0.000000000,56058.000000000,0.000000000,0.000000000,0.000000000,,,,,,,,,,,,,,,,,,,,,,,,,,,,,,,,,,,,,,,,
1714404479.110123,,,,,,,,,,,,,,,,,,,,,,,,,,,,,,,,,,,,,,,0.000000000,0.000000000,56064.000000000,15.000000000,2.000000000,10.000000000,,,,,,,,,,,,,,,,,,,,,,,,,,,,,,,,,,
1714404479.118168,,,,,,,,,,,,,,,,,,,,,,,,,,,,,,,,,,,,,,,,,,,,,0.000000000,0.000000000,56072.000000000,0.000000000,0.000000000,0.000000000,0.000000000,,,,,,,,,,,,,,,,,,,,,,,,,,,
1714404479.124063,,,,,,,,,,,,,,,,,,,,,,,,,,,,,,,,,,,,,,,,,,,,,,,,,,,,0.000000000,0.000000000,56078.000000000,0.000000000,0.000000000,0.000000000,0.000000000,,,,,,,,,,,,,,,,,,,,
1714404479.129995,,,,,,,,,,,,,,,,,,,,,,,,,,,,,,,,,,,,,,,,,,,,,,,,,,,,,,,,,,,0.000000000,0.000000000,0.689117730,-0.006918853,-0.009686395,0.724551618,-0.044921748,0.045199472,-0.048879027,,,,,,,,,,,
1714404479.205177,,,,,,,,,,,,,,,,,,,,,,,,,,,,,,,,,0.000000000,0.000000000,56158.000000000,0.000000000,0.000000000,0.000000000,,,,,,,,,,,,,,,,,,,,,,,,,,,,,,,,,,,,,,,,
1714404479.210007,,,,,,,,,,,,,,,,,,,,,,,,,,,,,,,,,,,,,,,0.000000000,0.000000000,56164.000000000,15.000000000,2.000000000,10.000000000,,,,,,,,,,,,,,,,,,,,,,,,,,,,,,,,,,
1714404479.219105,,,,,,,,,,,,,,,,,,,,,,,,,,,,,,,,,,,,,,,,,,,,,0.000000000,0.000000000,56172.000000000,0.000000000,0.000000000,0.000000000,0.000000000,,,,,,,,,,,,,,,,,,,,,,,,,,,
1714404479.223070,,,,,,,,,,,,,,,,,,,,,,,,,,,,,,,,,,,,,,,,,,,,,,,,,,,,0.000000000,0.000000000,56178.000000000,0.000000000,0.000000000,0.000000000,0.000000000,,,,,,,,,,,,,,,,,,,,
1714404479.229042,,,,,,,,,,,,,,,,,,,,,,,,,,,,,,,,,,,,,,,,,,,,,,,,,,,,,,,,,,,0.000000000,0.000000000,0.689117730,-0.006918853,-0.006918853,0.724583328,-0.040455468,0.050818458,-0.053330053,,,,,,,,,,,
1714404479.303034,,,,,,,,,,,,,,,,,,,,,,,,,,,,,,,,,0.000000000,0.000000000,56258.000000000,0.000000000,0.000000000,0.000000000,,,,,,,,,,,,,,,,,,,,,,,,,,,,,,,,,,,,,,,,
1714404479.308980,,,,,,,,,,,,,,,,,,,,,,,,,,,,,,,,,,,,,,,0.000000000,0.000000000,56264.000000000,15.000000000,2.000000000,10.000000000,,,,,,,,,,,,,,,,,,,,,,,,,,,,,,,,,,
1714404479.319958,,,,,,,,,,,,,,,,,,,,,,,,,,,,,,,,,,,,,,,,,,,,,0.000000000,0.000000000,56272.000000000,0.000000000,0.000000000,0.000000000,0.000000000,,,,,,,,,,,,,,,,,,,,,,,,,,,
1714404479.323106,,,,,,,,,,,,,,,,,,,,,,,,,,,,,,,,,,,,,,,,,,,,,,,,,,,,0.000000000,0.000000000,56278.000000000,0.000000000,0.000000000,0.000000000,0.000000000,,,,,,,,,,,,,,,,,,,,
1714404479.330026,,,,,,,,,,,,,,,,,,,,,,,,,,,,,,,,,,,,,,,,,,,,,,,,,,,,,,,,,,,0.000000000,0.000000000,0.689117730,-0.005535082,-0.011070165,0.724543691,-0.046876226,0.037017610,-0.042352885,,,,,,,,,,,
1714404479.405130,,,,,,,,,,,,,,,,,,,,,,,,,,,,,,,,,0.000000000,0.000000000,56358.000000000,0.000000000,0.000000000,0.000000000,,,,,,,,,,,,,,,,,,,,,,,,,,,,,,,,,,,,,,,,
1714404479.411119,,,,,,,,,,,,,,,,,,,,,,,,,,,,,,,,,,,,,,,0.000000000,0.000000000,56364.000000000,15.000000000,2.000000000,10.000000000,,,,,,,,,,,,,,,,,,,,,,,,,,,,,,,,,,
1714404479.418006,,,,,,,,,,,,,,,,,,,,,,,,,,,,,,,,,,,,,,,,,,,,,0.000000000,0.000000000,56372.000000000,0.000000000,0.000000000,0.000000000,0.000000000,,,,,,,,,,,,,,,,,,,,,,,,,,,
1714404479.426048,,,,,,,,,,,,,,,,,,,,,,,,,,,,,,,,,,,,,,,,,,,,,,,,,,,,0.000000000,0.000000000,56378.000000000,0.000000000,0.000000000,0.000000000,0.000000000,,,,,,,,,,,,,,,,,,,,
1714404479.430021,,,,,,,,,,,,,,,,,,,,,,,,,,,,,,,,,,,,,,,,,,,,,,,,,,,,,,,,,,,0.000000000,0.000000000,0.687734008,-0.006918853,-0.006918853,0.725896835,-0.041861244,0.046696812,-0.049821369,,,,,,,,,,,
1714404479.509075,,,,,,,,,,,,,,,,,,,,,,,,,,,,,,,,,0.000000000,0.000000000,56458.000000000,0.000000000,0.000000000,0.000000000,,,,,,,,,,,,,,,,,,,,,,,,,,,,,,,,,,,,,,,,
1714404479.510008,,,,,,,,,,,,,,,,,,,,,,,,,,,,,,,,,,,,,,,0.000000000,0.000000000,56464.000000000,15.000000000,2.000000000,10.000000000,,,,,,,,,,,,,,,,,,,,,,,,,,,,,,,,,,
1714404479.520030,,,,,,,,,,,,,,,,,,,,,,,,,,,,,,,,,,,,,,,,,,,,,0.000000000,0.000000000,56472.000000000,0.000000000,0.000000000,0.000000000,0.000000000,,,,,,,,,,,,,,,,,,,,,,,,,,,
1714404479.524057,,,,,,,,,,,,,,,,,,,,,,,,,,,,,,,,,,,,,,,,,,,,,,,,,,,,0.000000000,0.000000000,56478.000000000,0.000000000,0.000000000,0.000000000,0.000000000,,,,,,,,,,,,,,,,,,,,
1714404479.530035,,,,,,,,,,,,,,,,,,,,,,,,,,,,,,,,,,,,,,,,,,,,,,,,,,,,,,,,,,,0.000000000,0.000000000,0.689117730,-0.006918853,-0.006918853,0.724583328,-0.038898114,0.052174855,-0.052671734,,,,,,,,,,,
1714404479.603185,,,,,,,,,,,,,,,,,,,,,,,,,,,,,,,,,0.000000000,0.000000000,56558.000000000,0.000000000,0.000000000,0.000000000,,,,,,,,,,,,,,,,,,,,,,,,,,,,,,,,,,,,,,,,
1714404479.608948,,,,,,,,,,,,,,,,,,,,,,,,,,,,,,,,,,,,,,,0.000000000,0.000000000,56564.000000000,15.000000000,2.000000000,10.000000000,,,,,,,,,,,,,,,,,,,,,,,,,,,,,,,,,,
1714404479.619085,,,,,,,,,,,,,,,,,,,,,,,,,,,,,,,,,,,,,,,,,,,,,0.000000000,0.000000000,56572.000000000,0.000000000,0.000000000,0.000000000,0.000000000,,,,,,,,,,,,,,,,,,,,,,,,,,,
1714404479.624027,,,,,,,,,,,,,,,,,,,,,,,,,,,,,,,,,,,,,,,,,,,,,,,,,,,,0.000000000,0.000000000,56578.000000000,0.000000000,0.000000000,0.000000000,0.000000000,,,,,,,,,,,,,,,,,,,,
1714404479.630048,,,,,,,,,,,,,,,,,,,,,,,,,,,,,,,,,,,,,,,,,,,,,,,,,,,,,,,,,,,0.000000000,0.000000000,0.693269074,-0.005535082,-0.006918853,0.720624387,-0.036628082,0.056731008,-0.055570465,,,,,,,,,,,
1714404479.674241,,,,,,,,,,,,,,,,,,,,,,,,,,0.000000000,0.000000000,932.000000000,0.000000000,932.000000000,973.000000000,937.000000000,,,,,,,,,,,,,,,,,,,,,,,,,,,,,,,,,,,,,,,,,,,,,,
1714404479.707213,,,,,,,,,,,,,,,,,,,,,,,,,,,,,,,,,0.000000000,0.000000000,56658.000000000,0.000000000,0.000000000,0.000000000,,,,,,,,,,,,,,,,,,,,,,,,,,,,,,,,,,,,,,,,
1714404479.712068,,,,,,,,,,,,,,,,,,,,,,,,,,,,,,,,,,,,,,,0.000000000,0.000000000,56664.000000000,15.000000000,2.000000000,10.000000000,,,,,,,,,,,,,,,,,,,,,,,,,,,,,,,,,,
1714404479.719173,,,,,,,,,,,,,,,,,,,,,,,,,,,,,,,,,,,,,,,,,,,,,0.000000000,0.000000000,56672.000000000,0.000000000,0.000000000,0.000000000,0.000000000,,,,,,,,,,,,,,,,,,,,,,,,,,,
1714404479.725148,,,,,,,,,,,,,,,,,,,,,,,,,,,,,,,,,,,,,,,,,,,,,,,,,,,,0.000000000,0.000000000,56678.000000000,0.000000000,0.000000000,0.000000000,0.000000000,,,,,,,,,,,,,,,,,,,,
1714404479.729068,,,,,,,,,,,,,,,,,,,,,,,,,,,,,,,,,,,,,,,,,,,,,,,,,,,,,,,,,,,0.000000000,0.000000000,0.691885293,0.008302623,-0.020756559,0.721661270,-0.043107565,-0.029502332,0.012098726,,,,,,,,,,,
1714404479.738078,,,,,,,,,,,,,,,,,,,,,,,,,,,,,,,,,,,,,,,,,,,,,,,,,,,,,,,,,,,,,,,,,,,,4.064000130,0.000000000,0.000000000,3.000000000,0.000000000,0.000000000,0.000000000,970.000000000,0.000000000,55.000000000,14.000000000
1714404479.803226,,,,,,,,,,,,,,,,,,,,,,,,,,,,,,,,,0.000000000,0.000000000,56758.000000000,0.000000000,0.000000000,0.000000000,,,,,,,,,,,,,,,,,,,,,,,,,,,,,,,,,,,,,,,,
1714404479.809042,,,,,,,,,,,,,,,,,,,,,,,,,,,,,,,,,,,,,,,0.000000000,0.000000000,56764.000000000,15.000000000,2.000000000,10.000000000,,,,,,,,,,,,,,,,,,,,,,,,,,,,,,,,,,
1714404479.817103,,,,,,,,,,,,,,,,,,,,,,,,,,,,,,,,,,,,,,,,,,,,,0.000000000,0.000000000,56772.000000000,0.000000000,0.000000000,0.000000000,0.000000000,,,,,,,,,,,,,,,,,,,,,,,,,,,
1714404479.824188,,,,,,,,,,,,,,,,,,,,,,,,,,,,,,,,,,,,,,,,,,,,,,,,,,,,0.000000000,0.000000000,56778.000000000,0.000000000,0.000000000,0.000000000,0.000000000,,,,,,,,,,,,,,,,,,,,
1714404479.831994,,,,,,,,,,,,,,,,,,,,,,,,,,,,,,,,,,,,,,,,,,,,,,,,,,,,,,,,,,,0.000000000,0.000000000,0.693269074,-0.002767541,-0.017989017,0.720448971,-0.052748051,-0.043909628,0.016914790,,,,,,,,,,,
1714404479.903096,,,,,,,,,,,,,,,,,,,,,,,,,,,,,,,,,0.000000000,0.000000000,56858.000000000,0.000000000,0.000000000,0.000000000,,,,,,,,,,,,,,,,,,,,,,,,,,,,,,,,,,,,,,,,
1714404479.911029,,,,,,,,,,,,,,,,,,,,,,,,,,,,,,,,,,,,,,,0.000000000,0.000000000,56864.000000000,15.000000000,2.000000000,8.000000000,,,,,,,,,,,,,,,,,,,,,,,,,,,,,,,,,,
1714404479.917124,,,,,,,,,,,,,,,,,,,,,,,,,,,,,,,,,,,,,,,,,,,,,0.000000000,0.000000000,56872.000000000,0.000000000,0.000000000,0.000000000,0.000000000,,,,,,,,,,,,,,,,,,,,,,,,,,,
1714404479.925051,,,,,,,,,,,,,,,,,,,,,,,,,,,,,,,,,,,,,,,,,,,,,,,,,,,,0.000000000,0.000000000,56878.000000000,0.000000000,0.000000000,0.000000000,0.000000000,,,,,,,,,,,,,,,,,,,,
1714404479.929069,,,,,,,,,,,,,,,,,,,,,,,,,,,,,,,,,,,,,,,,,,,,,,,,,,,,,,,,,,,0.000000000,0.000000000,0.691885293,-0.011070165,-0.012453935,0.721815109,-0.060751777,-0.045493979,0.009313924,,,,,,,,,,,
1714404480.003142,,,,,,,,,,,,,,,,,,,,,,,,,,,,,,,,,0.000000000,0.000000000,56958.000000000,0.000000000,0.000000000,0.000000000,,,,,,,,,,,,,,,,,,,,,,,,,,,,,,,,,,,,,,,,
1714404480.009071,,,,,,,,,,,,,,,,,,,,,,,,,,,,,,,,,,,,,,,0.000000000,0.000000000,56964.000000000,15.000000000,2.000000000,8.000000000,,,,,,,,,,,,,,,,,,,,,,,,,,,,,,,,,,
1714404480.018064,,,,,,,,,,,,,,,,,,,,,,,,,,,,,,,,,,,,,,,,,,,,,0.000000000,0.000000000,56972.000000000,0.000000000,0.000000000,0.000000000,0.000000000,,,,,,,,,,,,,,,,,,,,,,,,,,,
1714404480.025041,,,,,,,,,,,,,,,,,,,,,,,,,,,,,,,,,,,,,,,,,,,,,,,,,,,,0.000000000,0.000000000,56978.000000000,0.000000000,0.000000000,0.000000000,0.000000000,,,,,,,,,,,,,,,,,,,,
1714404480.035055,,,,,,,,,,,,,,,,,,,,,,,,,,,,,,,,,,,,,,,,,,,,,,,,,,,,,,,,,,,0.000000000,0.000000000,0.689117730,-0.015221477,0.001383771,0.724488199,-0.017147359,0.003103718,0.050661165,,,,,,,,,,,
1714404480.103168,,,,,,,,,,,,,,,,,,,,,,,,,,,,,,,,,0.000000000,0.000000000,57058.000000000,0.000000000,0.000000000,0.000000000,,,,,,,,,,,,,,,,,,,,,,,,,,,,,,,,,,,,,,,,
1714404480.111114,,,,,,,,,,,,,,,,,,,,,,,,,,,,,,,,,,,,,,,0.000000000,0.000000000,57064.000000000,15.000000000,2.000000000,10.000000000,,,,,,,,,,,,,,,,,,,,,,,,,,,,,,,,,,
1714404480.117074,,,,,,,,,,,,,,,,,,,,,,,,,,,,,,,,,,,,,,,,,,,,,0.000000000,0.000000000,57072.000000000,0.000000000,0.000000000,0.000000000,0.000000000,,,,,,,,,,,,,,,,,,,,,,,,,,,
1714404480.123042,,,,,,,,,,,,,,,,,,,,,,,,,,,,,,,,,,,,,,,,,,,,,,,,,,,,0.000000000,0.000000000,57078.000000000,0.000000000,0.000000000,0.000000000,0.000000000,,,,,,,,,,,,,,,,,,,,
1714404480.131016,,,,,,,,,,,,,,,,,,,,,,,,,,,,,,,,,,,,,,,,,,,,,,,,,,,,,,,,,,,0.000000000,0.000000000,0.686350167,-0.009686395,0.005535082,0.727185667,0.021954229,0.032527756,0.085940376,,,,,,,,,,,
1714404480.204217,,,,,,,,,,,,,,,,,,,,,,,,,,,,,,,,,0.000000000,0.000000000,57158.000000000,0.000000000,0.000000000,0.000000000,,,,,,,,,,,,,,,,,,,,,,,,,,,,,,,,,,,,,,,,
1714404480.209042,,,,,,,,,,,,,,,,,,,,,,,,,,,,,,,,,,,,,,,0.000000000,0.000000000,57164.000000000,15.000000000,2.000000000,10.000000000,,,,,,,,,,,,,,,,,,,,,,,,,,,,,,,,,,
1714404480.218056,,,,,,,,,,,,,,,,,,,,,,,,,,,,,,,,,,,,,,,,,,,,,0.000000000,0.000000000,57172.000000000,0.000000000,0.000000000,0.000000000,0.000000000,,,,,,,,,,,,,,,,,,,,,,,,,,,
1714404480.224085,,,,,,,,,,,,,,,,,,,,,,,,,,,,,,,,,,,,,,,,,,,,,,,,,,,,0.000000000,0.000000000,57178.000000000,0.000000000,0.000000000,0.000000000,0.000000000,,,,,,,,,,,,,,,,,,,,
1714404480.230055,,,,,,,,,,,,,,,,,,,,,,,,,,,,,,,,,,,,,,,,,,,,,,,,,,,,,,,,,,,0.000000000,0.000000000,0.687734008,-0.006918853,0.005535082,0.725908697,0.042139199,0.045343779,0.102197945,,,,,,,,,,,
1714404480.303061,,,,,,,,,,,,,,,,,,,,,,,,,,,,,,,,,0.000000000,0.000000000,57258.000000000,0.000000000,0.000000000,0.000000000,,,,,,,,,,,,,,,,,,,,,,,,,,,,,,,,,,,,,,,,
1714404480.310065,,,,,,,,,,,,,,,,,,,,,,,,,,,,,,,,,,,,,,,0.000000000,0.000000000,57264.000000000,15.000000000,2.000000000,10.000000000,,,,,,,,,,,,,,,,,,,,,,,,,,,,,,,,,,
1714404480.317034,,,,,,,,,,,,,,,,,,,,,,,,,,,,,,,,,,,,,,,,,,,,,0.000000000,0.000000000,57272.000000000,0.000000000,0.000000000,0.000000000,0.000000000,,,,,,,,,,,,,,,,,,,,,,,,,,,
1714404480.322997,,,,,,,,,,,,,,,,,,,,,,,,,,,,,,,,,,,,,,,,,,,,,,,,,,,,0.000000000,0.000000000,57278.000000000,0.000000000,0.000000000,0.000000000,0.000000000,,,,,,,,,,,,,,,,,,,,
1714404480.329064,,,,,,,,,,,,,,,,,,,,,,,,,,,,,,,,,,,,,,,,,,,,,,,,,,,,,,,,,,,0.000000000,0.000000000,0.691885293,-0.006918853,0.004151312,0.721962333,0.057279609,0.056334235,0.108791165,,,,,,,,,,,
1714404480.404050,,,,,,,,,,,,,,,,,,,,,,,,,,,,,,,,,0.000000000,0.000000000,57358.000000000,0.000000000,0.000000000,0.000000000,,,,,,,,,,,,,,,,,,,,,,,,,,,,,,,,,,,,,,,,
1714404480.411089,,,,,,,,,,,,,,,,,,,,,,,,,,,,,,,,,,,,,,,0.000000000,0.000000000,57364.000000000,15.000000000,2.000000000,10.000000000,,,,,,,,,,,,,,,,,,,,,,,,,,,,,,,,,,
1714404480.417144,,,,,,,,,,,,,,,,,,,,,,,,,,,,,,,,,,,,,,,,,,,,,0.000000000,0.000000000,57372.000000000,0.000000000,0.000000000,0.000000000,0.000000000,,,,,,,,,,,,,,,,,,,,,,,,,,,
1714404480.424120,,,,,,,,,,,,,,,,,,,,,,,,,,,,,,,,,,,,,,,,,,,,,,,,,,,,0.000000000,0.000000000,57378.000000000,0.000000000,0.000000000,0.000000000,0.000000000,,,,,,,,,,,,,,,,,,,,
1714404480.430138,,,,,,,,,,,,,,,,,,,,,,,,,,,,,,,,,,,,,,,,,,,,,,,,,,,,,,,,,,,0.000000000,0.000000000,0.697420359,-0.006918853,0.004151312,0.716616929,0.077237718,0.073004290,0.119612761,,,,,,,,,,,
1714404480.503020,,,,,,,,,,,,,,,,,,,,,,,,,,,,,,,,,0.000000000,0.000000000,57458.000000000,0.000000000,0.000000000,0.000000000,,,,,,,,,,,,,,,,,,,,,,,,,,,,,,,,,,,,,,,,
1714404480.511166,,,,,,,,,,,,,,,,,,,,,,,,,,,,,,,,,,,,,,,0.000000000,0.000000000,57464.000000000,15.000000000,2.000000000,8.000000000,,,,,,,,,,,,,,,,,,,,,,,,,,,,,,,,,,
1714404480.522197,,,,,,,,,,,,,,,,,,,,,,,,,,,,,,,,,,,,,,,,,,,,,0.000000000,0.000000000,57473.000000000,0.000000000,0.000000000,0.000000000,0.000000000,,,,,,,,,,,,,,,,,,,,,,,,,,,
1714404480.523103,,,,,,,,,,,,,,,,,,,,,,,,,,,,,,,,,,,,,,,,,,,,,,,,,,,,0.000000000,0.000000000,57478.000000000,0.000000000,0.000000000,0.000000000,0.000000000,,,,,,,,,,,,,,,,,,,,
