__time,/avgPoint/action,/avgPoint/color/a,/avgPoint/color/b,/avgPoint/color/g,/avgPoint/color/r,/avgPoint/frame_locked,/avgPoint/header/stamp/nanosec,/avgPoint/header/stamp/sec,/avgPoint/id,/avgPoint/lifetime/nanosec,/avgPoint/lifetime/sec,/avgPoint/mesh_use_embedded_materials,/avgPoint/pose/orientation/w,/avgPoint/pose/orientation/x,/avgPoint/pose/orientation/y,/avgPoint/pose/orientation/z,/avgPoint/pose/position/x,/avgPoint/pose/position/y,/avgPoint/pose/position/z,/avgPoint/scale/x,/avgPoint/scale/y,/avgPoint/scale/z,/avgPoint/texture/header/stamp/nanosec,/avgPoint/texture/header/stamp/sec,/avgPoint/type,/cf1/cmd_full_state/acc/x,/cf1/cmd_full_state/acc/y,/cf1/cmd_full_state/acc/z,/cf1/cmd_full_state/header/stamp/nanosec,/cf1/cmd_full_state/header/stamp/sec,/cf1/cmd_full_state/pose/orientation/w,/cf1/cmd_full_state/pose/orientation/x,/cf1/cmd_full_state/pose/orientation/y,/cf1/cmd_full_state/pose/orientation/z,/cf1/cmd_full_state/pose/position/x,/cf1/cmd_full_state/pose/position/y,/cf1/cmd_full_state/pose/position/z,/cf1/cmd_full_state/twist/angular/x,/cf1/cmd_full_state/twist/angular/y,/cf1/cmd_full_state/twist/angular/z,/cf1/cmd_full_state/twist/linear/x,/cf1/cmd_full_state/twist/linear/y,/cf1/cmd_full_state/twist/linear/z,/cf1/connection_statistics/header/stamp/nanosec,/cf1/connection_statistics/header/stamp/sec,/cf1/connection_statistics/stats[0]/ack_count,/cf1/connection_statistics/stats[0]/enqueued_count,/cf1/connection_statistics/stats[0]/receive_count,/cf1/connection_statistics/stats[0]/sent_count,/cf1/connection_statistics/stats[0]/sent_ping_count,/cf1/etc/header/stamp/nanosec,/cf1/etc/header/stamp/sec,/cf1/etc/timestamp,/cf1/etc/values[0],/cf1/etc/values[1],/cf1/etc/values[2],/cf1/lighthouseInfo/header/stamp/nanosec,/cf1/lighthouseInfo/header/stamp/sec,/cf1/lighthouseInfo/timestamp,/cf1/lighthouseInfo/values[0],/cf1/lighthouseInfo/values[1],/cf1/lighthouseInfo/values[2],/cf1/motorspeed/header/stamp/nanosec,/cf1/motorspeed/header/stamp/sec,/cf1/motorspeed/timestamp,/cf1/motorspeed/values[0],/cf1/motorspeed/values[1],/cf1/motorspeed/values[2],/cf1/motorspeed/values[3],/cf1/motorvars/header/stamp/nanosec,/cf1/motorvars/header/stamp/sec,/cf1/motorvars/timestamp,/cf1/motorvars/values[0],/cf1/motorvars/values[1],/cf1/motorvars/values[2],/cf1/motorvars/values[3],/cf1/pose/header/stamp/nanosec,/cf1/pose/header/stamp/sec,/cf1/pose/pose/orientation/w,/cf1/pose/pose/orientation/x,/cf1/pose/pose/orientation/y,/cf1/pose/pose/orientation/z,/cf1/pose/pose/position/x,/cf1/pose/pose/position/y,/cf1/pose/pose/position/z,/cf1/status/battery_voltage,/cf1/status/header/stamp/nanosec,/cf1/status/header/stamp/sec,/cf1/status/latency_unicast,/cf1/status/num_rx_broadcast,/cf1/status/num_rx_unicast,/cf1/status/num_tx_broadcast,/cf1/status/num_tx_unicast,/cf1/status/pm_state,/cf1/status/rssi,/cf1/status/supervisor_info,/cf5/cmd_full_state/acc/x,/cf5/cmd_full_state/acc/y,/cf5/cmd_full_state/acc/z,/cf5/cmd_full_state/header/stamp/nanosec,/cf5/cmd_full_state/header/stamp/sec,/cf5/cmd_full_state/pose/orientation/w,/cf5/cmd_full_state/pose/orientation/x,/cf5/cmd_full_state/pose/orientation/y,/cf5/cmd_full_state/pose/orientation/z,/cf5/cmd_full_state/pose/position/x,/cf5/cmd_full_state/pose/position/y,/cf5/cmd_full_state/pose/position/z,/cf5/cmd_full_state/twist/angular/x,/cf5/cmd_full_state/twist/angular/y,/cf5/cmd_full_state/twist/angular/z,/cf5/cmd_full_state/twist/linear/x,/cf5/cmd_full_state/twist/linear/y,/cf5/cmd_full_state/twist/linear/z,/cf5/connection_statistics/header/stamp/nanosec,/cf5/connection_statistics/header/stamp/sec,/cf5/connection_statistics/stats[0]/ack_count,/cf5/connection_statistics/stats[0]/enqueued_count,/cf5/connection_statistics/stats[0]/receive_count,/cf5/connection_statistics/stats[0]/sent_count,/cf5/connection_statistics/stats[0]/sent_ping_count,/cf5/etc/header/stamp/nanosec,/cf5/etc/header/stamp/sec,/cf5/etc/timestamp,/cf5/etc/values[0],/cf5/etc/values[1],/cf5/etc/values[2],/cf5/lighthouseInfo/header/stamp/nanosec,/cf5/lighthouseInfo/header/stamp/sec,/cf5/lighthouseInfo/timestamp,/cf5/lighthouseInfo/values[0],/cf5/lighthouseInfo/values[1],/cf5/lighthouseInfo/values[2],/cf5/motorspeed/header/stamp/nanosec,/cf5/motorspeed/header/stamp/sec,/cf5/motorspeed/timestamp,/cf5/motorspeed/values[0],/cf5/motorspeed/values[1],/cf5/motorspeed/values[2],/cf5/motorspeed/values[3],/cf5/motorvars/header/stamp/nanosec,/cf5/motorvars/header/stamp/sec,/cf5/motorvars/timestamp,/cf5/motorvars/values[0],/cf5/motorvars/values[1],/cf5/motorvars/values[2],/cf5/motorvars/values[3],/cf5/pose/header/stamp/nanosec,/cf5/pose/header/stamp/sec,/cf5/pose/pose/orientation/w,/cf5/pose/pose/orientation/x,/cf5/pose/pose/orientation/y,/cf5/pose/pose/orientation/z,/cf5/pose/pose/position/x,/cf5/pose/pose/position/y,/cf5/pose/pose/position/z,/cf5/status/battery_voltage,/cf5/status/header/stamp/nanosec,/cf5/status/header/stamp/sec,/cf5/status/latency_unicast,/cf5/status/num_rx_broadcast,/cf5/status/num_rx_unicast,/cf5/status/num_tx_broadcast,/cf5/status/num_tx_unicast,/cf5/status/pm_state,/cf5/status/rssi,/cf5/status/supervisor_info
1714408677.828252,,,,,,,,,,,,,,,,,,,,,,,,,,,,,,,,,,,,,,,,,,,,,,,,,,,0.000000000,0.000000000,103599.000000000,0.000000000,0.000000000,0.000000000,,,,,,,,,,,,,,,,,,,,,,,,,,,,,,,,,,,,,,,,,,,,,,,,,,,,,,,,,,,,,,,,,,,,,,,,,,,,,,,,,,,,,,,,,,,,,,,,,,,,,,,,,,,,,,,
1714408677.836261,,,,,,,,,,,,,,,,,,,,,,,,,,,,,,,,,,,,,,,,,,,,,,,,,,,,,,,,,0.000000000,0.000000000,103607.000000000,15.000000000,2.000000000,15.000000000,,,,,,,,,,,,,,,,,,,,,,,,,,,,,,,,,,,,,,,,,,,,,,,,,,,,,,,,,,,,,,,,,,,,,,,,,,,,,,,,,,,,,,,,,,,,,,,,,,,,,,,,,
1714408677.844269,,,,,,,,,,,,,,,,,,,,,,,,,,,,,,,,,,,,,,,,,,,,,,,,,,,,,,,,,,,,,,,0.000000000,0.000000000,103616.000000000,0.000000000,0.000000000,0.000000000,0.000000000,,,,,,,,,,,,,,,,,,,,,,,,,,,,,,,,,,,,,,,,,,,,,,,,,,,,,,,,,,,,,,,,,,,,,,,,,,,,,,,,,,,,,,,,,,,,,,,,,,
1714408677.852318,,,,,,,,,,,,,,,,,,,,,,,,,,,,,,,,,,,,,,,,,,,,,,,,,,,,,,,,,,,,,,,,,,,,,,0.000000000,0.000000000,103622.000000000,0.000000000,0.000000000,0.000000000,0.000000000,,,,,,,,,,,,,,,,,,,,,,,,,,,,,,,,,,,,,,,,,,,,,,,,,,,,,,,,,,,,,,,,,,,,,,,,,,,,,,,,,,,,,,,,,,,
1714408677.858272,,,,,,,,,,,,,,,,,,,,,,,,,,,,,,,,,,,,,,,,,,,,,,,,,,,,,,,,,,,,,,,,,,,,,,,,,,,,,0.000000000,0.000000000,0.791115105,-0.001383771,-0.006918853,-0.611626625,-0.059904750,0.124181457,0.034235153,,,,,,,,,,,,,,,,,,,,,,,,,,,,,,,,,,,,,,,,,,,,,,,,,,,,,,,,,,,,,,,,,,,,,,,,,,,,,,,,,,
1714408677.893316,,,,,,,,,,,,,,,,,,,,,,,,,,,,,,,,,,,,,,,,,,,,,,,,,,,,,,,,,,,,,,,,,,,,,,,,,,,,,,,,,,,,,,,,,,,,,,,,,,,,,,,,,,,,,,,,,,,,,,,,,,,,,,,,,,,,,,,,,,,,,0.000000000,0.000000000,87288.000000000,0.000000000,0.000000000,0.000000000,0.000000000,,,,,,,,,,,,,,,,,,,,
1714408677.904173,,,,,,,,,,,,,,,,,,,,,,,,,,,,,,,,,,,,,,,,,,,,,,,,,,,,,,,,,,,,,,,,,,,,,,,,,,,,,,,,,,,,,,,,,,,,,,,,,,,,,,,,,,,,,,,,,,,,,,,,,,,,,,,,,,,,,,,,,,,,,,,,,,,,0.000000000,0.000000000,0.761951387,-0.005535082,0.002767541,-0.647604644,0.499725968,0.140314385,0.004128563,,,,,,,,,,,
1714408677.927306,,,,,,,,,,,,,,,,,,,,,,,,,,,,,,,,,,,,,,,,,,,,,,,,,,,0.000000000,0.000000000,103699.000000000,0.000000000,0.000000000,0.000000000,,,,,,,,,,,,,,,,,,,,,,,,,,,,,,,,,,,,,,,,,,,,,,,,,,,,,,,,,,,,,,,,,,,,,,,,,,,,,,,,,,,,,,,,,,,,,,,,,,,,,,,,,,,,,,,
1714408677.937207,,,,,,,,,,,,,,,,,,,,,,,,,,,,,,,,,,,,,,,,,,,,,,,,,,,,,,,,,0.000000000,0.000000000,103708.000000000,15.000000000,2.000000000,15.000000000,,,,,,,,,,,,,,,,,,,,,,,,,,,,,,,,,,,,,,,,,,,,,,,,,,,,,,,,,,,,,,,,,,,,,,,,,,,,,,,,,,,,,,,,,,,,,,,,,,,,,,,,,
1714408677.946293,,,,,,,,,,,,,,,,,,,,,,,,,,,,,,,,,,,,,,,,,,,,,,,,,,,,,,,,,,,,,,,0.000000000,0.000000000,103716.000000000,0.000000000,0.000000000,0.000000000,0.000000000,,,,,,,,,,,,,,,,,,,,,,,,,,,,,,,,,,,,,,,,,,,,,,,,,,,,,,,,,,,,,,,,,,,,,,,,,,,,,,,,,,,,,,,,,,,,,,,,,,
1714408677.950201,,,,,,,,,,,,,,,,,,,,,,,,,,,,,,,,,,,,,,,,,,,,,,,,,,,,,,,,,,,,,,,,,,,,,,0.000000000,0.000000000,103721.000000000,0.000000000,0.000000000,0.000000000,0.000000000,,,,,,,,,,,,,,,,,,,,,,,,,,,,,,,,,,,,,,,,,,,,,,,,,,,,,,,,,,,,,,,,,,,,,,,,,,,,,,,,,,,,,,,,,,,
1714408677.955134,,,,,,,,,,,,,,,,,,,,,,,,,,,,,,,,,,,,,,,,,,,,,,,,,,,,,,,,,,,,,,,,,,,,,,,,,,,,,,,,,,,,,,,,,,,,,,,,,,,,,,,,,,,,,,,,,,,,,,,,,,0.000000000,0.000000000,87351.000000000,0.000000000,0.000000000,0.000000000,,,,,,,,,,,,,,,,,,,,,,,,,,,,,,,,,,,,,,,,
1714408677.957282,,,,,,,,,,,,,,,,,,,,,,,,,,,,,,,,,,,,,,,,,,,,,,,,,,,,,,,,,,,,,,,,,,,,,,,,,,,,,0.000000000,0.000000000,0.793243408,0.002767541,-0.006918853,-0.608859062,-0.084740102,0.123127289,0.044793129,,,,,,,,,,,,,,,,,,,,,,,,,,,,,,,,,,,,,,,,,,,,,,,,,,,,,,,,,,,,,,,,,,,,,,,,,,,,,,,,,,
1714408677.968271,,,,,,,,,,,,,,,,,,,,,,,,,,,,,,,,,,,,,,,,,,,,,,,,,,,,,,,,,,,,,,,,,,,,,,,,,,,,,,,,,,,,,,,,,,,,,,,,,,,,,,,,,,,,,,,,,,,,,,,,,,,,,,,,0.000000000,0.000000000,87364.000000000,15.000000000,2.000000000,15.000000000,,,,,,,,,,,,,,,,,,,,,,,,,,,,,,,,,,
1714408677.979175,,,,,,,,,,,,,,,,,,,,,,,,,,,,,,,,,,,,,,,,,,,,,,,,,,,,,,,,,,,,,,,,,,,,,,,,,,,,,,,,,,,,,,,,,,,,,,,,,,,,,,,,,,,,,,,,,,,,,,,,,,,,,,,,,,,,,,0.000000000,0.000000000,87376.000000000,0.000000000,0.000000000,0.000000000,0.000000000,,,,,,,,,,,,,,,,,,,,,,,,,,,
1714408677.992210,,,,,,,,,,,,,,,,,,,,,,,,,,,,,,,,,,,,,,,,,,,,,,,,,,,,,,,,,,,,,,,,,,,,,,,,,,,,,,,,,,,,,,,,,,,,,,,,,,,,,,,,,,,,,,,,,,,,,,,,,,,,,,,,,,,,,,,,,,,,,0.000000000,0.000000000,87388.000000000,0.000000000,0.000000000,0.000000000,0.000000000,,,,,,,,,,,,,,,,,,,,
1714408678.005227,,,,,,,,,,,,,,,,,,,,,,,,,,,,,,,,,,,,,,,,,,,,,,,,,,,,,,,,,,,,,,,,,,,,,,,,,,,,,,,,,,,,,,,,,,,,,,,,,,,,,,,,,,,,,,,,,,,,,,,,,,,,,,,,,,,,,,,,,,,,,,,,,,,,0.000000000,0.000000000,0.764303803,-0.004151312,0.002767541,-0.644837081,0.500689745,0.136334971,0.007130984,,,,,,,,,,,
1714408678.029283,,,,,,,,,,,,,,,,,,,,,,,,,,,,,,,,,,,,,,,,,,,,,,,,,,,0.000000000,0.000000000,103800.000000000,0.000000000,0.000000000,0.000000000,,,,,,,,,,,,,,,,,,,,,,,,,,,,,,,,,,,,,,,,,,,,,,,,,,,,,,,,,,,,,,,,,,,,,,,,,,,,,,,,,,,,,,,,,,,,,,,,,,,,,,,,,,,,,,,
1714408678.038221,,,,,,,,,,,,,,,,,,,,,,,,,,,,,,,,,,,,,,,,,,,,,,,,,,,,,,,,,0.000000000,0.000000000,103807.000000000,15.000000000,2.000000000,15.000000000,,,,,,,,,,,,,,,,,,,,,,,,,,,,,,,,,,,,,,,,,,,,,,,,,,,,,,,,,,,,,,,,,,,,,,,,,,,,,,,,,,,,,,,,,,,,,,,,,,,,,,,,,
1714408678.046251,,,,,,,,,,,,,,,,,,,,,,,,,,,,,,,,,,,,,,,,,,,,,,,,,,,,,,,,,,,,,,,0.000000000,0.000000000,103816.000000000,0.000000000,0.000000000,0.000000000,0.000000000,,,,,,,,,,,,,,,,,,,,,,,,,,,,,,,,,,,,,,,,,,,,,,,,,,,,,,,,,,,,,,,,,,,,,,,,,,,,,,,,,,,,,,,,,,,,,,,,,,
1714408678.050224,,,,,,,,,,,,,,,,,,,,,,,,,,,,,,,,,,,,,,,,,,,,,,,,,,,,,,,,,,,,,,,,,,,,,,0.000000000,0.000000000,103821.000000000,0.000000000,0.000000000,0.000000000,0.000000000,,,,,,,,,,,,,,,,,,,,,,,,,,,,,,,,,,,,,,,,,,,,,,,,,,,,,,,,,,,,,,,,,,,,,,,,,,,,,,,,,,,,,,,,,,,
1714408678.055192,,,,,,,,,,,,,,,,,,,,,,,,,,,,,,,,,,,,,,,,,,,,,,,,,,,,,,,,,,,,,,,,,,,,,,,,,,,,,,,,,,,,,,,,,,,,,,,,,,,,,,,,,,,,,,,,,,,,,,,,,,0.000000000,0.000000000,87451.000000000,0.000000000,0.000000000,0.000000000,,,,,,,,,,,,,,,,,,,,,,,,,,,,,,,,,,,,,,,,
1714408678.058250,,,,,,,,,,,,,,,,,,,,,,,,,,,,,,,,,,,,,,,,,,,,,,,,,,,,,,,,,,,,,,,,,,,,,,,,,,,,,0.000000000,0.000000000,0.792209625,0.002767541,0.000000000,-0.610242784,-0.088813484,0.116141997,0.061228063,,,,,,,,,,,,,,,,,,,,,,,,,,,,,,,,,,,,,,,,,,,,,,,,,,,,,,,,,,,,,,,,,,,,,,,,,,,,,,,,,,
1714408678.068186,,,,,,,,,,,,,,,,,,,,,,,,,,,,,,,,,,,,,,,,,,,,,,,,,,,,,,,,,,,,,,,,,,,,,,,,,,,,,,,,,,,,,,,,,,,,,,,,,,,,,,,,,,,,,,,,,,,,,,,,,,,,,,,,0.000000000,0.000000000,87464.000000000,15.000000000,2.000000000,15.000000000,,,,,,,,,,,,,,,,,,,,,,,,,,,,,,,,,,
1714408678.079224,,,,,,,,,,,,,,,,,,,,,,,,,,,,,,,,,,,,,,,,,,,,,,,,,,,,,,,,,,,,,,,,,,,,,,,,,,,,,,,,,,,,,,,,,,,,,,,,,,,,,,,,,,,,,,,,,,,,,,,,,,,,,,,,,,,,,,0.000000000,0.000000000,87476.000000000,0.000000000,0.000000000,0.000000000,0.000000000,,,,,,,,,,,,,,,,,,,,,,,,,,,
1714408678.092172,,,,,,,,,,,,,,,,,,,,,,,,,,,,,,,,,,,,,,,,,,,,,,,,,,,,,,,,,,,,,,,,,,,,,,,,,,,,,,,,,,,,,,,,,,,,,,,,,,,,,,,,,,,,,,,,,,,,,,,,,,,,,,,,,,,,,,,,,,,,,0.000000000,0.000000000,87488.000000000,0.000000000,0.000000000,0.000000000,0.000000000,,,,,,,,,,,,,,,,,,,,
1714408678.105240,,,,,,,,,,,,,,,,,,,,,,,,,,,,,,,,,,,,,,,,,,,,,,,,,,,,,,,,,,,,,,,,,,,,,,,,,,,,,,,,,,,,,,,,,,,,,,,,,,,,,,,,,,,,,,,,,,,,,,,,,,,,,,,,,,,,,,,,,,,,,,,,,,,,0.000000000,0.000000000,0.761953950,-0.004151312,-0.004151312,-0.647604644,0.473996371,0.158511683,0.001300698,,,,,,,,,,,
1714408678.128302,,,,,,,,,,,,,,,,,,,,,,,,,,,,,,,,,,,,,,,,,,,,,,,,,,,0.000000000,0.000000000,103899.000000000,0.000000000,0.000000000,0.000000000,,,,,,,,,,,,,,,,,,,,,,,,,,,,,,,,,,,,,,,,,,,,,,,,,,,,,,,,,,,,,,,,,,,,,,,,,,,,,,,,,,,,,,,,,,,,,,,,,,,,,,,,,,,,,,,
1714408678.137292,,,,,,,,,,,,,,,,,,,,,,,,,,,,,,,,,,,,,,,,,,,,,,,,,,,,,,,,,0.000000000,0.000000000,103907.000000000,15.000000000,2.000000000,15.000000000,,,,,,,,,,,,,,,,,,,,,,,,,,,,,,,,,,,,,,,,,,,,,,,,,,,,,,,,,,,,,,,,,,,,,,,,,,,,,,,,,,,,,,,,,,,,,,,,,,,,,,,,,
1714408678.145275,,,,,,,,,,,,,,,,,,,,,,,,,,,,,,,,,,,,,,,,,,,,,,,,,,,,,,,,,,,,,,,0.000000000,0.000000000,103916.000000000,0.000000000,0.000000000,0.000000000,0.000000000,,,,,,,,,,,,,,,,,,,,,,,,,,,,,,,,,,,,,,,,,,,,,,,,,,,,,,,,,,,,,,,,,,,,,,,,,,,,,,,,,,,,,,,,,,,,,,,,,,
1714408678.151166,,,,,,,,,,,,,,,,,,,,,,,,,,,,,,,,,,,,,,,,,,,,,,,,,,,,,,,,,,,,,,,,,,,,,,0.000000000,0.000000000,103921.000000000,0.000000000,0.000000000,0.000000000,0.000000000,,,,,,,,,,,,,,,,,,,,,,,,,,,,,,,,,,,,,,,,,,,,,,,,,,,,,,,,,,,,,,,,,,,,,,,,,,,,,,,,,,,,,,,,,,,
1714408678.154142,,,,,,,,,,,,,,,,,,,,,,,,,,,,,,,,,,,,,,,,,,,,,,,,,,,,,,,,,,,,,,,,,,,,,,,,,,,,,,,,,,,,,,,,,,,,,,,,,,,,,,,,,,,,,,,,,,,,,,,,,,0.000000000,0.000000000,87551.000000000,0.000000000,0.000000000,0.000000000,,,,,,,,,,,,,,,,,,,,,,,,,,,,,,,,,,,,,,,,
1714408678.156246,,,,,,,,,,,,,,,,,,,,,,,,,,,,,,,,,,,,,,,,,,,,,,,,,,,,,,,,,,,,,,,,,,,,,,,,,,,,,0.000000000,0.000000000,0.790989280,-0.004151312,0.015221477,-0.611626625,-0.050383724,0.103758164,0.030823445,,,,,,,,,,,,,,,,,,,,,,,,,,,,,,,,,,,,,,,,,,,,,,,,,,,,,,,,,,,,,,,,,,,,,,,,,,,,,,,,,,
1714408678.166236,,,,,,,,,,,,,,,,,,,,,,,,,,,,,,,,,,,,,,,,,,,,,,,,,,,,,,,,,,,,,,,,,,,,,,,,,,,,,,,,,,,,,,,,,,,,,,,,,,,,,,,,,,,,,,,,,,,,,,,,,,,,,,,,0.000000000,0.000000000,87564.000000000,15.000000000,2.000000000,15.000000000,,,,,,,,,,,,,,,,,,,,,,,,,,,,,,,,,,
1714408678.180231,,,,,,,,,,,,,,,,,,,,,,,,,,,,,,,,,,,,,,,,,,,,,,,,,,,,,,,,,,,,,,,,,,,,,,,,,,,,,,,,,,,,,,,,,,,,,,,,,,,,,,,,,,,,,,,,,,,,,,,,,,,,,,,,,,,,,,0.000000000,0.000000000,87576.000000000,0.000000000,0.000000000,0.000000000,0.000000000,,,,,,,,,,,,,,,,,,,,,,,,,,,
1714408678.192197,,,,,,,,,,,,,,,,,,,,,,,,,,,,,,,,,,,,,,,,,,,,,,,,,,,,,,,,,,,,,,,,,,,,,,,,,,,,,,,,,,,,,,,,,,,,,,,,,,,,,,,,,,,,,,,,,,,,,,,,,,,,,,,,,,,,,,,,,,,,,0.000000000,0.000000000,87588.000000000,0.000000000,0.000000000,0.000000000,0.000000000,,,,,,,,,,,,,,,,,,,,
1714408678.206214,,,,,,,,,,,,,,,,,,,,,,,,,,,,,,,,,,,,,,,,,,,,,,,,,,,,,,,,,,,,,,,,,,,,,,,,,,,,,,,,,,,,,,,,,,,,,,,,,,,,,,,,,,,,,,,,,,,,,,,,,,,,,,,,,,,,,,,,,,,,,,,,,,,,0.000000000,0.000000000,0.759538889,-0.006918853,-0.008302623,-0.650372148,0.455075324,0.192604080,-0.016990520,,,,,,,,,,,
1714408678.229349,,,,,,,,,,,,,,,,,,,,,,,,,,,,,,,,,,,,,,,,,,,,,,,,,,,0.000000000,0.000000000,104001.000000000,0.000000000,0.000000000,0.000000000,,,,,,,,,,,,,,,,,,,,,,,,,,,,,,,,,,,,,,,,,,,,,,,,,,,,,,,,,,,,,,,,,,,,,,,,,,,,,,,,,,,,,,,,,,,,,,,,,,,,,,,,,,,,,,,
1714408678.235257,,,,,,,,,,,,,,,,,,,,,,,,,,,,,,,,,,,,,,,,,,,,,,,,,,,,,,,,,0.000000000,0.000000000,104007.000000000,15.000000000,2.000000000,15.000000000,,,,,,,,,,,,,,,,,,,,,,,,,,,,,,,,,,,,,,,,,,,,,,,,,,,,,,,,,,,,,,,,,,,,,,,,,,,,,,,,,,,,,,,,,,,,,,,,,,,,,,,,,
1714408678.245258,,,,,,,,,,,,,,,,,,,,,,,,,,,,,,,,,,,,,,,,,,,,,,,,,,,,,,,,,,,,,,,0.000000000,0.000000000,104016.000000000,0.000000000,0.000000000,0.000000000,0.000000000,,,,,,,,,,,,,,,,,,,,,,,,,,,,,,,,,,,,,,,,,,,,,,,,,,,,,,,,,,,,,,,,,,,,,,,,,,,,,,,,,,,,,,,,,,,,,,,,,,
1714408678.249285,,,,,,,,,,,,,,,,,,,,,,,,,,,,,,,,,,,,,,,,,,,,,,,,,,,,,,,,,,,,,,,,,,,,,,0.000000000,0.000000000,104021.000000000,0.000000000,0.000000000,0.000000000,0.000000000,,,,,,,,,,,,,,,,,,,,,,,,,,,,,,,,,,,,,,,,,,,,,,,,,,,,,,,,,,,,,,,,,,,,,,,,,,,,,,,,,,,,,,,,,,,
1714408678.254150,,,,,,,,,,,,,,,,,,,,,,,,,,,,,,,,,,,,,,,,,,,,,,,,,,,,,,,,,,,,,,,,,,,,,,,,,,,,,,,,,,,,,,,,,,,,,,,,,,,,,,,,,,,,,,,,,,,,,,,,,,0.000000000,0.000000000,87651.000000000,0.000000000,0.000000000,0.000000000,,,,,,,,,,,,,,,,,,,,,,,,,,,,,,,,,,,,,,,,
1714408678.258326,,,,,,,,,,,,,,,,,,,,,,,,,,,,,,,,,,,,,,,,,,,,,,,,,,,,,,,,,,,,,,,,,,,,,,,,,,,,,0.000000000,0.000000000,0.790806413,-0.006918853,0.022140330,-0.611626625,-0.018495398,0.086390711,-0.004913594,,,,,,,,,,,,,,,,,,,,,,,,,,,,,,,,,,,,,,,,,,,,,,,,,,,,,,,,,,,,,,,,,,,,,,,,,,,,,,,,,,
1714408678.269272,,,,,,,,,,,,,,,,,,,,,,,,,,,,,,,,,,,,,,,,,,,,,,,,,,,,,,,,,,,,,,,,,,,,,,,,,,,,,,,,,,,,,,,,,,,,,,,,,,,,,,,,,,,,,,,,,,,,,,,,,,,,,,,,0.000000000,0.000000000,87664.000000000,15.000000000,2.000000000,15.000000000,,,,,,,,,,,,,,,,,,,,,,,,,,,,,,,,,,
1714408678.279222,,,,,,,,,,,,,,,,,,,,,,,,,,,,,,,,,,,,,,,,,,,,,,,,,,,,,,,,,,,,,,,,,,,,,,,,,,,,,,,,,,,,,,,,,,,,,,,,,,,,,,,,,,,,,,,,,,,,,,,,,,,,,,,,,,,,,,0.000000000,0.000000000,87676.000000000,0.000000000,0.000000000,0.000000000,0.000000000,,,,,,,,,,,,,,,,,,,,,,,,,,,
1714408678.293268,,,,,,,,,,,,,,,,,,,,,,,,,,,,,,,,,,,,,,,,,,,,,,,,,,,,,,,,,,,,,,,,,,,,,,,,,,,,,,,,,,,,,,,,,,,,,,,,,,,,,,,,,,,,,,,,,,,,,,,,,,,,,,,,,,,,,,,,,,,,,0.000000000,0.000000000,87688.000000000,0.000000000,0.000000000,0.000000000,0.000000000,,,,,,,,,,,,,,,,,,,,
1714408678.306191,,,,,,,,,,,,,,,,,,,,,,,,,,,,,,,,,,,,,,,,,,,,,,,,,,,,,,,,,,,,,,,,,,,,,,,,,,,,,,,,,,,,,,,,,,,,,,,,,,,,,,,,,,,,,,,,,,,,,,,,,,,,,,,,,,,,,,,,,,,,,,,,,,,,0.000000000,0.000000000,0.760792017,-0.001383771,0.002767541,-0.648988426,0.459349751,0.169692248,0.002939729,,,,,,,,,,,
1714408678.327301,,,,,,,,,,,,,,,,,,,,,,,,,,,,,,,,,,,,,,,,,,,,,,,,,,,0.000000000,0.000000000,104099.000000000,0.000000000,0.000000000,0.000000000,,,,,,,,,,,,,,,,,,,,,,,,,,,,,,,,,,,,,,,,,,,,,,,,,,,,,,,,,,,,,,,,,,,,,,,,,,,,,,,,,,,,,,,,,,,,,,,,,,,,,,,,,,,,,,,
1714408678.335292,,,,,,,,,,,,,,,,,,,,,,,,,,,,,,,,,,,,,,,,,,,,,,,,,,,,,,,,,0.000000000,0.000000000,104107.000000000,15.000000000,2.000000000,15.000000000,,,,,,,,,,,,,,,,,,,,,,,,,,,,,,,,,,,,,,,,,,,,,,,,,,,,,,,,,,,,,,,,,,,,,,,,,,,,,,,,,,,,,,,,,,,,,,,,,,,,,,,,,
1714408678.345258,,,,,,,,,,,,,,,,,,,,,,,,,,,,,,,,,,,,,,,,,,,,,,,,,,,,,,,,,,,,,,,0.000000000,0.000000000,104116.000000000,0.000000000,0.000000000,0.000000000,0.000000000,,,,,,,,,,,,,,,,,,,,,,,,,,,,,,,,,,,,,,,,,,,,,,,,,,,,,,,,,,,,,,,,,,,,,,,,,,,,,,,,,,,,,,,,,,,,,,,,,,
1714408678.349257,,,,,,,,,,,,,,,,,,,,,,,,,,,,,,,,,,,,,,,,,,,,,,,,,,,,,,,,,,,,,,,,,,,,,,0.000000000,0.000000000,104121.000000000,0.000000000,0.000000000,0.000000000,0.000000000,,,,,,,,,,,,,,,,,,,,,,,,,,,,,,,,,,,,,,,,,,,,,,,,,,,,,,,,,,,,,,,,,,,,,,,,,,,,,,,,,,,,,,,,,,,
1714408678.354200,,,,,,,,,,,,,,,,,,,,,,,,,,,,,,,,,,,,,,,,,,,,,,,,,,,,,,,,,,,,,,,,,,,,,,,,,,,,,,,,,,,,,,,,,,,,,,,,,,,,,,,,,,,,,,,,,,,,,,,,,,0.000000000,0.000000000,87751.000000000,0.000000000,0.000000000,0.000000000,,,,,,,,,,,,,,,,,,,,,,,,,,,,,,,,,,,,,,,,
1714408678.355245,,,,,,,,,,,,,,,,,,,,,,,,,,,,,,,,,,,,,,,,,,,,,,,,,,,,,,,,,,,,,,,,,,,,,,,,,,,,,0.000000000,0.000000000,0.792038023,-0.015221477,0.006918853,-0.610242784,-0.017458243,0.113416210,-0.014782493,,,,,,,,,,,,,,,,,,,,,,,,,,,,,,,,,,,,,,,,,,,,,,,,,,,,,,,,,,,,,,,,,,,,,,,,,,,,,,,,,,
1714408678.368210,,,,,,,,,,,,,,,,,,,,,,,,,,,,,,,,,,,,,,,,,,,,,,,,,,,,,,,,,,,,,,,,,,,,,,,,,,,,,,,,,,,,,,,,,,,,,,,,,,,,,,,,,,,,,,,,,,,,,,,,,,,,,,,,0.000000000,0.000000000,87764.000000000,15.000000000,2.000000000,15.000000000,,,,,,,,,,,,,,,,,,,,,,,,,,,,,,,,,,
1714408678.379297,,,,,,,,,,,,,,,,,,,,,,,,,,,,,,,,,,,,,,,,,,,,,,,,,,,,,,,,,,,,,,,,,,,,,,,,,,,,,,,,,,,,,,,,,,,,,,,,,,,,,,,,,,,,,,,,,,,,,,,,,,,,,,,,,,,,,,0.000000000,0.000000000,87776.000000000,0.000000000,0.000000000,0.000000000,0.000000000,,,,,,,,,,,,,,,,,,,,,,,,,,,
1714408678.391304,,,,,,,,,,,,,,,,,,,,,,,,,,,,,,,,,,,,,,,,,,,,,,,,,,,,,,,,,,,,,,,,,,,,,,,,,,,,,,,,,,,,,,,,,,,,,,,,,,,,,,,,,,,,,,,,,,,,,,,,,,,,,,,,,,,,,,,,,,,,,0.000000000,0.000000000,87788.000000000,0.000000000,0.000000000,0.000000000,0.000000000,,,,,,,,,,,,,,,,,,,,
1714408678.404158,,,,,,,,,,,,,,,,,,,,,,,,,,,,,,,,,,,,,,,,,,,,,,,,,,,,,,,,,,,,,,,,,,,,,,,,,,,,,,,,,,,,,,,,,,,,,,,,,,,,,,,,,,,,,,,,,,,,,,,,,,,,,,,,,,,,,,,,,,,,,,,,,,,,0.000000000,0.000000000,0.760785699,0.001383771,0.004151312,-0.648988426,0.443622380,0.150153726,0.044035345,,,,,,,,,,,
1714408678.428277,,,,,,,,,,,,,,,,,,,,,,,,,,,,,,,,,,,,,,,,,,,,,,,,,,,0.000000000,0.000000000,104200.000000000,0.000000000,0.000000000,0.000000000,,,,,,,,,,,,,,,,,,,,,,,,,,,,,,,,,,,,,,,,,,,,,,,,,,,,,,,,,,,,,,,,,,,,,,,,,,,,,,,,,,,,,,,,,,,,,,,,,,,,,,,,,,,,,,,
1714408678.436254,,,,,,,,,,,,,,,,,,,,,,,,,,,,,,,,,,,,,,,,,,,,,,,,,,,,,,,,,0.000000000,0.000000000,104207.000000000,15.000000000,2.000000000,15.000000000,,,,,,,,,,,,,,,,,,,,,,,,,,,,,,,,,,,,,,,,,,,,,,,,,,,,,,,,,,,,,,,,,,,,,,,,,,,,,,,,,,,,,,,,,,,,,,,,,,,,,,,,,
1714408678.444301,,,,,,,,,,,,,,,,,,,,,,,,,,,,,,,,,,,,,,,,,,,,,,,,,,,,,,,,,,,,,,,0.000000000,0.000000000,104216.000000000,0.000000000,0.000000000,0.000000000,0.000000000,,,,,,,,,,,,,,,,,,,,,,,,,,,,,,,,,,,,,,,,,,,,,,,,,,,,,,,,,,,,,,,,,,,,,,,,,,,,,,,,,,,,,,,,,,,,,,,,,,
1714408678.450238,,,,,,,,,,,,,,,,,,,,,,,,,,,,,,,,,,,,,,,,,,,,,,,,,,,,,,,,,,,,,,,,,,,,,,0.000000000,0.000000000,104221.000000000,0.000000000,0.000000000,0.000000000,0.000000000,,,,,,,,,,,,,,,,,,,,,,,,,,,,,,,,,,,,,,,,,,,,,,,,,,,,,,,,,,,,,,,,,,,,,,,,,,,,,,,,,,,,,,,,,,,
1714408678.455176,,,,,,,,,,,,,,,,,,,,,,,,,,,,,,,,,,,,,,,,,,,,,,,,,,,,,,,,,,,,,,,,,,,,,,,,,,,,,,,,,,,,,,,,,,,,,,,,,,,,,,,,,,,,,,,,,,,,,,,,,,0.000000000,0.000000000,87852.000000000,0.000000000,0.000000000,0.000000000,,,,,,,,,,,,,,,,,,,,,,,,,,,,,,,,,,,,,,,,
1714408678.456184,,,,,,,,,,,,,,,,,,,,,,,,,,,,,,,,,,,,,,,,,,,,,,,,,,,,,,,,,,,,,,,,,,,,,,,,,,,,,0.000000000,0.000000000,0.789971888,-0.008302623,0.009686395,-0.613010347,-0.012052649,0.096150964,-0.011639688,,,,,,,,,,,,,,,,,,,,,,,,,,,,,,,,,,,,,,,,,,,,,,,,,,,,,,,,,,,,,,,,,,,,,,,,,,,,,,,,,,
1714408678.467247,,,,,,,,,,,,,,,,,,,,,,,,,,,,,,,,,,,,,,,,,,,,,,,,,,,,,,,,,,,,,,,,,,,,,,,,,,,,,,,,,,,,,,,,,,,,,,,,,,,,,,,,,,,,,,,,,,,,,,,,,,,,,,,,0.000000000,0.000000000,87864.000000000,15.000000000,2.000000000,15.000000000,,,,,,,,,,,,,,,,,,,,,,,,,,,,,,,,,,
1714408678.479221,,,,,,,,,,,,,,,,,,,,,,,,,,,,,,,,,,,,,,,,,,,,,,,,,,,,,,,,,,,,,,,,,,,,,,,,,,,,,,,,,,,,,,,,,,,,,,,,,,,,,,,,,,,,,,,,,,,,,,,,,,,,,,,,,,,,,,0.000000000,0.000000000,87876.000000000,0.000000000,0.000000000,0.000000000,0.000000000,,,,,,,,,,,,,,,,,,,,,,,,,,,
1714408678.491189,,,,,,,,,,,,,,,,,,,,,,,,,,,,,,,,,,,,,,,,,,,,,,,,,,,,,,,,,,,,,,,,,,,,,,,,,,,,,,,,,,,,,,,,,,,,,,,,,,,,,,,,,,,,,,,,,,,,,,,,,,,,,,,,,,,,,,,,,,,,,0.000000000,0.000000000,87888.000000000,0.000000000,0.000000000,0.000000000,0.000000000,,,,,,,,,,,,,,,,,,,,
1714408678.504229,,,,,,,,,,,,,,,,,,,,,,,,,,,,,,,,,,,,,,,,,,,,,,,,,,,,,,,,,,,,,,,,,,,,,,,,,,,,,,,,,,,,,,,,,,,,,,,,,,,,,,,,,,,,,,,,,,,,,,,,,,,,,,,,,,,,,,,,,,,,,,,,,,,,0.000000000,0.000000000,0.763119102,-0.006918853,0.000000000,-0.646220863,0.452345371,0.165826425,0.025821066,,,,,,,,,,,
1714408678.527377,,,,,,,,,,,,,,,,,,,,,,,,,,,,,,,,,,,,,,,,,,,,,,,,,,,0.000000000,0.000000000,104299.000000000,0.000000000,0.000000000,0.000000000,,,,,,,,,,,,,,,,,,,,,,,,,,,,,,,,,,,,,,,,,,,,,,,,,,,,,,,,,,,,,,,,,,,,,,,,,,,,,,,,,,,,,,,,,,,,,,,,,,,,,,,,,,,,,,,
1714408678.535375,,,,,,,,,,,,,,,,,,,,,,,,,,,,,,,,,,,,,,,,,,,,,,,,,,,,,,,,,0.000000000,0.000000000,104307.000000000,15.000000000,2.000000000,15.000000000,,,,,,,,,,,,,,,,,,,,,,,,,,,,,,,,,,,,,,,,,,,,,,,,,,,,,,,,,,,,,,,,,,,,,,,,,,,,,,,,,,,,,,,,,,,,,,,,,,,,,,,,,
1714408678.546185,,,,,,,,,,,,,,,,,,,,,,,,,,,,,,,,,,,,,,,,,,,,,,,,,,,,,,,,,,,,,,,0.000000000,0.000000000,104316.000000000,0.000000000,0.000000000,0.000000000,0.000000000,,,,,,,,,,,,,,,,,,,,,,,,,,,,,,,,,,,,,,,,,,,,,,,,,,,,,,,,,,,,,,,,,,,,,,,,,,,,,,,,,,,,,,,,,,,,,,,,,,
1714408678.550189,,,,,,,,,,,,,,,,,,,,,,,,,,,,,,,,,,,,,,,,,,,,,,,,,,,,,,,,,,,,,,,,,,,,,,0.000000000,0.000000000,104321.000000000,0.000000000,0.000000000,0.000000000,0.000000000,,,,,,,,,,,,,,,,,,,,,,,,,,,,,,,,,,,,,,,,,,,,,,,,,,,,,,,,,,,,,,,,,,,,,,,,,,,,,,,,,,,,,,,,,,,
1714408678.553197,,,,,,,,,,,,,,,,,,,,,,,,,,,,,,,,,,,,,,,,,,,,,,,,,,,,,,,,,,,,,,,,,,,,,,,,,,,,,,,,,,,,,,,,,,,,,,,,,,,,,,,,,,,,,,,,,,,,,,,,,,0.000000000,0.000000000,87951.000000000,0.000000000,0.000000000,0.000000000,,,,,,,,,,,,,,,,,,,,,,,,,,,,,,,,,,,,,,,,
1714408678.556260,,,,,,,,,,,,,,,,,,,,,,,,,,,,,,,,,,,,,,,,,,,,,,,,,,,,,,,,,,,,,,,,,,,,,,,,,,,,,0.000000000,0.000000000,0.791067898,-0.005535082,0.009686395,-0.611626625,-0.004552980,0.092452459,-0.001228655,,,,,,,,,,,,,,,,,,,,,,,,,,,,,,,,,,,,,,,,,,,,,,,,,,,,,,,,,,,,,,,,,,,,,,,,,,,,,,,,,,
1714408678.567232,,,,,,,,,,,,,,,,,,,,,,,,,,,,,,,,,,,,,,,,,,,,,,,,,,,,,,,,,,,,,,,,,,,,,,,,,,,,,,,,,,,,,,,,,,,,,,,,,,,,,,,,,,,,,,,,,,,,,,,,,,,,,,,,0.000000000,0.000000000,87964.000000000,15.000000000,2.000000000,15.000000000,,,,,,,,,,,,,,,,,,,,,,,,,,,,,,,,,,
1714408678.579252,,,,,,,,,,,,,,,,,,,,,,,,,,,,,,,,,,,,,,,,,,,,,,,,,,,,,,,,,,,,,,,,,,,,,,,,,,,,,,,,,,,,,,,,,,,,,,,,,,,,,,,,,,,,,,,,,,,,,,,,,,,,,,,,,,,,,,0.000000000,0.000000000,87976.000000000,0.000000000,0.000000000,0.000000000,0.000000000,,,,,,,,,,,,,,,,,,,,,,,,,,,
1714408678.593309,,,,,,,,,,,,,,,,,,,,,,,,,,,,,,,,,,,,,,,,,,,,,,,,,,,,,,,,,,,,,,,,,,,,,,,,,,,,,,,,,,,,,,,,,,,,,,,,,,,,,,,,,,,,,,,,,,,,,,,,,,,,,,,,,,,,,,,,,,,,,0.000000000,0.000000000,87988.000000000,0.000000000,0.000000000,0.000000000,0.000000000,,,,,,,,,,,,,,,,,,,,
1714408678.606188,,,,,,,,,,,,,,,,,,,,,,,,,,,,,,,,,,,,,,,,,,,,,,,,,,,,,,,,,,,,,,,,,,,,,,,,,,,,,,,,,,,,,,,,,,,,,,,,,,,,,,,,,,,,,,,,,,,,,,,,,,,,,,,,,,,,,,,,,,,,,,,,,,,,0.000000000,0.000000000,0.765385270,-0.011070165,0.005535082,-0.643453360,0.476156563,0.168368176,-0.014426623,,,,,,,,,,,
1714408678.629281,,,,,,,,,,,,,,,,,,,,,,,,,,,,,,,,,,,,,,,,,,,,,,,,,,,0.000000000,0.000000000,104399.000000000,0.000000000,0.000000000,0.000000000,,,,,,,,,,,,,,,,,,,,,,,,,,,,,,,,,,,,,,,,,,,,,,,,,,,,,,,,,,,,,,,,,,,,,,,,,,,,,,,,,,,,,,,,,,,,,,,,,,,,,,,,,,,,,,,
1714408678.635376,,,,,,,,,,,,,,,,,,,,,,,,,,,,,,,,,,,,,,,,,,,,,,,,,,,,,,,,,0.000000000,0.000000000,104407.000000000,15.000000000,2.000000000,15.000000000,,,,,,,,,,,,,,,,,,,,,,,,,,,,,,,,,,,,,,,,,,,,,,,,,,,,,,,,,,,,,,,,,,,,,,,,,,,,,,,,,,,,,,,,,,,,,,,,,,,,,,,,,
1714408678.644321,,,,,,,,,,,,,,,,,,,,,,,,,,,,,,,,,,,,,,,,,,,,,,,,,,,,,,,,,,,,,,,0.000000000,0.000000000,104416.000000000,0.000000000,0.000000000,0.000000000,0.000000000,,,,,,,,,,,,,,,,,,,,,,,,,,,,,,,,,,,,,,,,,,,,,,,,,,,,,,,,,,,,,,,,,,,,,,,,,,,,,,,,,,,,,,,,,,,,,,,,,,
1714408678.651281,,,,,,,,,,,,,,,,,,,,,,,,,,,,,,,,,,,,,,,,,,,,,,,,,,,,,,,,,,,,,,,,,,,,,,0.000000000,0.000000000,104421.000000000,0.000000000,0.000000000,0.000000000,0.000000000,,,,,,,,,,,,,,,,,,,,,,,,,,,,,,,,,,,,,,,,,,,,,,,,,,,,,,,,,,,,,,,,,,,,,,,,,,,,,,,,,,,,,,,,,,,
1714408678.655263,,,,,,,,,,,,,,,,,,,,,,,,,,,,,,,,,,,,,,,,,,,,,,,,,,,,,,,,,,,,,,,,,,,,,,,,,,,,,0.000000000,0.000000000,0.792202353,-0.004151312,0.001383771,-0.610242784,-0.019887634,0.107026331,0.010106795,,,,,,,,,,,,,,,,,,,,,,,,,,,,,,,,,,,,,,,,,,,,,,,,,,,,,,,,,,,,,,,,,,,,,,,,,,,,,,,,,,
1714408678.656191,,,,,,,,,,,,,,,,,,,,,,,,,,,,,,,,,,,,,,,,,,,,,,,,,,,,,,,,,,,,,,,,,,,,,,,,,,,,,,,,,,,,,,,,,,,,,,,,,,,,,,,,,,,,,,,,,,,,,,,,,,0.000000000,0.000000000,88053.000000000,0.000000000,0.000000000,0.000000000,,,,,,,,,,,,,,,,,,,,,,,,,,,,,,,,,,,,,,,,
1714408678.667242,,,,,,,,,,,,,,,,,,,,,,,,,,,,,,,,,,,,,,,,,,,,,,,,,,,,,,,,,,,,,,,,,,,,,,,,,,,,,,,,,,,,,,,,,,,,,,,,,,,,,,,,,,,,,,,,,,,,,,,,,,,,,,,,0.000000000,0.000000000,88064.000000000,15.000000000,2.000000000,15.000000000,,,,,,,,,,,,,,,,,,,,,,,,,,,,,,,,,,
1714408678.679249,,,,,,,,,,,,,,,,,,,,,,,,,,,,,,,,,,,,,,,,,,,,,,,,,,,,,,,,,,,,,,,,,,,,,,,,,,,,,,,,,,,,,,,,,,,,,,,,,,,,,,,,,,,,,,,,,,,,,,,,,,,,,,,,,,,,,,0.000000000,0.000000000,88076.000000000,0.000000000,0.000000000,0.000000000,0.000000000,,,,,,,,,,,,,,,,,,,,,,,,,,,
1714408678.691222,,,,,,,,,,,,,,,,,,,,,,,,,,,,,,,,,,,,,,,,,,,,,,,,,,,,,,,,,,,,,,,,,,,,,,,,,,,,,,,,,,,,,,,,,,,,,,,,,,,,,,,,,,,,,,,,,,,,,,,,,,,,,,,,,,,,,,,,,,,,,0.000000000,0.000000000,88088.000000000,0.000000000,0.000000000,0.000000000,0.000000000,,,,,,,,,,,,,,,,,,,,
1714408678.705267,,,,,,,,,,,,,,,,,,,,,,,,,,,,,,,,,,,,,,,,,,,,,,,,,,,,,,,,,,,,,,,,,,,,,,,,,,,,,,,,,,,,,,,,,,,,,,,,,,,,,,,,,,,,,,,,,,,,,,,,,,,,,,,,,,,,,,,,,,,,,,,,,,,,0.000000000,0.000000000,0.765352726,-0.006918853,0.012453935,-0.643453360,0.500551462,0.143365130,-0.001868587,,,,,,,,,,,
1714408678.727304,,,,,,,,,,,,,,,,,,,,,,,,,,,,,,,,,,,,,,,,,,,,,,,,,,,0.000000000,0.000000000,104499.000000000,0.000000000,0.000000000,0.000000000,,,,,,,,,,,,,,,,,,,,,,,,,,,,,,,,,,,,,,,,,,,,,,,,,,,,,,,,,,,,,,,,,,,,,,,,,,,,,,,,,,,,,,,,,,,,,,,,,,,,,,,,,,,,,,,
1714408678.736180,,,,,,,,,,,,,,,,,,,,,,,,,,,,,,,,,,,,,,,,,,,,,,,,,,,,,,,,,0.000000000,0.000000000,104507.000000000,15.000000000,2.000000000,15.000000000,,,,,,,,,,,,,,,,,,,,,,,,,,,,,,,,,,,,,,,,,,,,,,,,,,,,,,,,,,,,,,,,,,,,,,,,,,,,,,,,,,,,,,,,,,,,,,,,,,,,,,,,,
1714408678.744254,,,,,,,,,,,,,,,,,,,,,,,,,,,,,,,,,,,,,,,,,,,,,,,,,,,,,,,,,,,,,,,0.000000000,0.000000000,104516.000000000,0.000000000,0.000000000,0.000000000,0.000000000,,,,,,,,,,,,,,,,,,,,,,,,,,,,,,,,,,,,,,,,,,,,,,,,,,,,,,,,,,,,,,,,,,,,,,,,,,,,,,,,,,,,,,,,,,,,,,,,,,
1714408678.753281,,,,,,,,,,,,,,,,,,,,,,,,,,,,,,,,,,,,,,,,,,,,,,,,,,,,,,,,,,,,,,,,,,,,,,0.000000000,0.000000000,104524.000000000,0.000000000,0.000000000,0.000000000,0.000000000,,,,,,,,,,,,,,,,,,,,,,,,,,,,,,,,,,,,,,,,,,,,,,,,,,,,,,,,,,,,,,,,,,,,,,,,,,,,,,,,,,,,,,,,,,,
1714408678.755265,,,,,,,,,,,,,,,,,,,,,,,,,,,,,,,,,,,,,,,,,,,,,,,,,,,,,,,,,,,,,,,,,,,,,,,,,,,,,0.000000000,0.000000000,0.791134417,-0.001383771,-0.004151312,-0.611626625,-0.046684146,0.116967931,0.024864061,,,,,,,,,,,,,,,,,,,,,,,,,,,,,,,,,,,,,,,,,,,,,,,,,,,,,,,,,,,,,,,,,,,,,,,,,,,,,,,,,,
1714408678.757235,,,,,,,,,,,,,,,,,,,,,,,,,,,,,,,,,,,,,,,,,,,,,,,,,,,,,,,,,,,,,,,,,,,,,,,,,,,,,,,,,,,,,,,,,,,,,,,,,,,,,,,,,,,,,,,,,,,,,,,,,,0.000000000,0.000000000,88152.000000000,0.000000000,0.000000000,0.000000000,,,,,,,,,,,,,,,,,,,,,,,,,,,,,,,,,,,,,,,,
1714408678.767145,,,,,,,,,,,,,,,,,,,,,,,,,,,,,,,,,,,,,,,,,,,,,,,,,,,,,,,,,,,,,,,,,,,,,,,,,,,,,,,,,,,,,,,,,,,,,,,,,,,,,,,,,,,,,,,,,,,,,,,,,,,,,,,,0.000000000,0.000000000,88164.000000000,15.000000000,2.000000000,15.000000000,,,,,,,,,,,,,,,,,,,,,,,,,,,,,,,,,,
1714408678.782205,,,,,,,,,,,,,,,,,,,,,,,,,,,,,,,,,,,,,,,,,,,,,,,,,,,,,,,,,,,,,,,,,,,,,,,,,,,,,,,,,,,,,,,,,,,,,,,,,,,,,,,,,,,,,,,,,,,,,,,,,,,,,,,,,,,,,,0.000000000,0.000000000,88176.000000000,0.000000000,0.000000000,0.000000000,0.000000000,,,,,,,,,,,,,,,,,,,,,,,,,,,
1714408678.792166,,,,,,,,,,,,,,,,,,,,,,,,,,,,,,,,,,,,,,,,,,,,,,,,,,,,,,,,,,,,,,,,,,,,,,,,,,,,,,,,,,,,,,,,,,,,,,,,,,,,,,,,,,,,,,,,,,,,,,,,,,,,,,,,,,,,,,,,,,,,,0.000000000,0.000000000,88188.000000000,0.000000000,0.000000000,0.000000000,0.000000000,,,,,,,,,,,,,,,,,,,,
1714408678.805242,,,,,,,,,,,,,,,,,,,,,,,,,,,,,,,,,,,,,,,,,,,,,,,,,,,,,,,,,,,,,,,,,,,,,,,,,,,,,,,,,,,,,,,,,,,,,,,,,,,,,,,,,,,,,,,,,,,,,,,,,,,,,,,,,,,,,,,,,,,,,,,,,,,,0.000000000,0.000000000,0.761854649,-0.005535082,0.012453935,-0.647604644,0.509808064,0.128900230,0.003595166,,,,,,,,,,,
1714408678.829428,,,,,,,,,,,,,,,,,,,,,,,,,,,,,,,,,,,,,,,,,,,,,,,,,,,0.000000000,0.000000000,104600.000000000,0.000000000,0.000000000,0.000000000,,,,,,,,,,,,,,,,,,,,,,,,,,,,,,,,,,,,,,,,,,,,,,,,,,,,,,,,,,,,,,,,,,,,,,,,,,,,,,,,,,,,,,,,,,,,,,,,,,,,,,,,,,,,,,,
1714408678.835277,,,,,,,,,,,,,,,,,,,,,,,,,,,,,,,,,,,,,,,,,,,,,,,,,,,,,,,,,0.000000000,0.000000000,104607.000000000,15.000000000,2.000000000,15.000000000,,,,,,,,,,,,,,,,,,,,,,,,,,,,,,,,,,,,,,,,,,,,,,,,,,,,,,,,,,,,,,,,,,,,,,,,,,,,,,,,,,,,,,,,,,,,,,,,,,,,,,,,,
1714408678.845206,,,,,,,,,,,,,,,,,,,,,,,,,,,,,,,,,,,,,,,,,,,,,,,,,,,,,,,,,,,,,,,0.000000000,0.000000000,104616.000000000,0.000000000,0.000000000,0.000000000,0.000000000,,,,,,,,,,,,,,,,,,,,,,,,,,,,,,,,,,,,,,,,,,,,,,,,,,,,,,,,,,,,,,,,,,,,,,,,,,,,,,,,,,,,,,,,,,,,,,,,,,
1714408678.850291,,,,,,,,,,,,,,,,,,,,,,,,,,,,,,,,,,,,,,,,,,,,,,,,,,,,,,,,,,,,,,,,,,,,,,0.000000000,0.000000000,104621.000000000,0.000000000,0.000000000,0.000000000,0.000000000,,,,,,,,,,,,,,,,,,,,,,,,,,,,,,,,,,,,,,,,,,,,,,,,,,,,,,,,,,,,,,,,,,,,,,,,,,,,,,,,,,,,,,,,,,,
1714408678.854197,,,,,,,,,,,,,,,,,,,,,,,,,,,,,,,,,,,,,,,,,,,,,,,,,,,,,,,,,,,,,,,,,,,,,,,,,,,,,,,,,,,,,,,,,,,,,,,,,,,,,,,,,,,,,,,,,,,,,,,,,,0.000000000,0.000000000,88251.000000000,0.000000000,0.000000000,0.000000000,,,,,,,,,,,,,,,,,,,,,,,,,,,,,,,,,,,,,,,,
1714408678.855204,,,,,,,,,,,,,,,,,,,,,,,,,,,,,,,,,,,,,,,,,,,,,,,,,,,,,,,,,,,,,,,,,,,,,,,,,,,,,0.000000000,0.000000000,0.791127205,0.000000000,-0.005535082,-0.611626625,-0.069907270,0.127698570,0.033770945,,,,,,,,,,,,,,,,,,,,,,,,,,,,,,,,,,,,,,,,,,,,,,,,,,,,,,,,,,,,,,,,,,,,,,,,,,,,,,,,,,
1714408678.867385,,,,,,,,,,,,,,,,,,,,,,,,,,,,,,,,,,,,,,,,,,,,,,,,,,,,,,,,,,,,,,,,,,,,,,,,,,,,,,,,,,,,,,,,,,,,,,,,,,,,,,,,,,,,,,,,,,,,,,,,,,,,,,,,0.000000000,0.000000000,88264.000000000,15.000000000,2.000000000,15.000000000,,,,,,,,,,,,,,,,,,,,,,,,,,,,,,,,,,
1714408678.880358,,,,,,,,,,,,,,,,,,,,,,,,,,,,,,,,,,,,,,,,,,,,,,,,,,,,,,,,,,,,,,,,,,,,,,,,,,,,,,,,,,,,,,,,,,,,,,,,,,,,,,,,,,,,,,,,,,,,,,,,,,,,,,,,,,,,,,0.000000000,0.000000000,88276.000000000,0.000000000,0.000000000,0.000000000,0.000000000,,,,,,,,,,,,,,,,,,,,,,,,,,,
1714408678.892291,,,,,,,,,,,,,,,,,,,,,,,,,,,,,,,,,,,,,,,,,,,,,,,,,,,,,,,,,,,,,,,,,,,,,,,,,,,,,,,,,,,,,,,,,,,,,,,,,,,,,,,,,,,,,,,,,,,,,,,,,,,,,,,,,,,,,,,,,,,,,0.000000000,0.000000000,88288.000000000,0.000000000,0.000000000,0.000000000,0.000000000,,,,,,,,,,,,,,,,,,,,
1714408678.904283,,,,,,,,,,,,,,,,,,,,,,,,,,,,,,,,,,,,,,,,,,,,,,,,,,,,,,,,,,,,,,,,,,,,,,,,,,,,,,,,,,,,,,,,,,,,,,,,,,,,,,,,,,,,,,,,,,,,,,,,,,,,,,,,,,,,,,,,,,,,,,,,,,,,0.000000000,0.000000000,0.764257431,-0.006918853,0.006918853,-0.644837081,0.510348856,0.132729858,-0.002175866,,,,,,,,,,,
1714408678.927224,,,,,,,,,,,,,,,,,,,,,,,,,,,,,,,,,,,,,,,,,,,,,,,,,,,0.000000000,0.000000000,104699.000000000,0.000000000,0.000000000,0.000000000,,,,,,,,,,,,,,,,,,,,,,,,,,,,,,,,,,,,,,,,,,,,,,,,,,,,,,,,,,,,,,,,,,,,,,,,,,,,,,,,,,,,,,,,,,,,,,,,,,,,,,,,,,,,,,,
1714408678.934264,,,,,,,,,,,,,,,,,,,,,,,,,,,,,,,,,,,,,,,,,,,,,,,,,,,,,,,,,0.000000000,0.000000000,104707.000000000,15.000000000,2.000000000,15.000000000,,,,,,,,,,,,,,,,,,,,,,,,,,,,,,,,,,,,,,,,,,,,,,,,,,,,,,,,,,,,,,,,,,,,,,,,,,,,,,,,,,,,,,,,,,,,,,,,,,,,,,,,,
1714408678.945324,,,,,,,,,,,,,,,,,,,,,,,,,,,,,,,,,,,,,,,,,,,,,,,,,,,,,,,,,,,,,,,0.000000000,0.000000000,104716.000000000,0.000000000,0.000000000,0.000000000,0.000000000,,,,,,,,,,,,,,,,,,,,,,,,,,,,,,,,,,,,,,,,,,,,,,,,,,,,,,,,,,,,,,,,,,,,,,,,,,,,,,,,,,,,,,,,,,,,,,,,,,
1714408678.951280,,,,,,,,,,,,,,,,,,,,,,,,,,,,,,,,,,,,,,,,,,,,,,,,,,,,,,,,,,,,,,,,,,,,,,0.000000000,0.000000000,104721.000000000,0.000000000,0.000000000,0.000000000,0.000000000,,,,,,,,,,,,,,,,,,,,,,,,,,,,,,,,,,,,,,,,,,,,,,,,,,,,,,,,,,,,,,,,,,,,,,,,,,,,,,,,,,,,,,,,,,,
1714408678.955141,,,,,,,,,,,,,,,,,,,,,,,,,,,,,,,,,,,,,,,,,,,,,,,,,,,,,,,,,,,,,,,,,,,,,,,,,,,,,,,,,,,,,,,,,,,,,,,,,,,,,,,,,,,,,,,,,,,,,,,,,,0.000000000,0.000000000,88351.000000000,0.000000000,0.000000000,0.000000000,,,,,,,,,,,,,,,,,,,,,,,,,,,,,,,,,,,,,,,,
1714408678.956210,,,,,,,,,,,,,,,,,,,,,,,,,,,,,,,,,,,,,,,,,,,,,,,,,,,,,,,,,,,,,,,,,,,,,,,,,,,,,0.000000000,0.000000000,0.794327736,0.000000000,-0.004151312,-0.607475281,-0.087573752,0.131646827,0.053686056,,,,,,,,,,,,,,,,,,,,,,,,,,,,,,,,,,,,,,,,,,,,,,,,,,,,,,,,,,,,,,,,,,,,,,,,,,,,,,,,,,
1714408678.967279,,,,,,,,,,,,,,,,,,,,,,,,,,,,,,,,,,,,,,,,,,,,,,,,,,,,,,,,,,,,,,,,,,,,,,,,,,,,,,,,,,,,,,,,,,,,,,,,,,,,,,,,,,,,,,,,,,,,,,,,,,,,,,,,0.000000000,0.000000000,88364.000000000,15.000000000,2.000000000,15.000000000,,,,,,,,,,,,,,,,,,,,,,,,,,,,,,,,,,
1714408678.980254,,,,,,,,,,,,,,,,,,,,,,,,,,,,,,,,,,,,,,,,,,,,,,,,,,,,,,,,,,,,,,,,,,,,,,,,,,,,,,,,,,,,,,,,,,,,,,,,,,,,,,,,,,,,,,,,,,,,,,,,,,,,,,,,,,,,,,0.000000000,0.000000000,88376.000000000,0.000000000,0.000000000,0.000000000,0.000000000,,,,,,,,,,,,,,,,,,,,,,,,,,,
1714408678.991302,,,,,,,,,,,,,,,,,,,,,,,,,,,,,,,,,,,,,,,,,,,,,,,,,,,,,,,,,,,,,,,,,,,,,,,,,,,,,,,,,,,,,,,,,,,,,,,,,,,,,,,,,,,,,,,,,,,,,,,,,,,,,,,,,,,,,,,,,,,,,0.000000000,0.000000000,88388.000000000,0.000000000,0.000000000,0.000000000,0.000000000,,,,,,,,,,,,,,,,,,,,
1714408679.003232,,,,,,,,,,,,,,,,,,,,,,,,,,,,,,,,,,,,,,,,,,,,,,,,,,,,,,,,,,,,,,,,,,,,,,,,,,,,,,,,,,,,,,,,,,,,,,,,,,,,,,,,,,,,,,,,,,,,,,,,,,,,,,,,,,,,,,,,,,,,,,,,,,,,0.000000000,0.000000000,0.765452802,-0.006918853,0.001383771,-0.643453360,0.507145107,0.139104903,-0.003771967,,,,,,,,,,,
1714408679.028307,,,,,,,,,,,,,,,,,,,,,,,,,,,,,,,,,,,,,,,,,,,,,,,,,,,0.000000000,0.000000000,104799.000000000,0.000000000,0.000000000,0.000000000,,,,,,,,,,,,,,,,,,,,,,,,,,,,,,,,,,,,,,,,,,,,,,,,,,,,,,,,,,,,,,,,,,,,,,,,,,,,,,,,,,,,,,,,,,,,,,,,,,,,,,,,,,,,,,,
1714408679.035404,,,,,,,,,,,,,,,,,,,,,,,,,,,,,,,,,,,,,,,,,,,,,,,,,,,,,,,,,0.000000000,0.000000000,104807.000000000,15.000000000,2.000000000,15.000000000,,,,,,,,,,,,,,,,,,,,,,,,,,,,,,,,,,,,,,,,,,,,,,,,,,,,,,,,,,,,,,,,,,,,,,,,,,,,,,,,,,,,,,,,,,,,,,,,,,,,,,,,,
1714408679.044391,,,,,,,,,,,,,,,,,,,,,,,,,,,,,,,,,,,,,,,,,,,,,,,,,,,,,,,,,,,,,,,0.000000000,0.000000000,104816.000000000,0.000000000,0.000000000,0.000000000,0.000000000,,,,,,,,,,,,,,,,,,,,,,,,,,,,,,,,,,,,,,,,,,,,,,,,,,,,,,,,,,,,,,,,,,,,,,,,,,,,,,,,,,,,,,,,,,,,,,,,,,
1714408679.050344,,,,,,,,,,,,,,,,,,,,,,,,,,,,,,,,,,,,,,,,,,,,,,,,,,,,,,,,,,,,,,,,,,,,,,0.000000000,0.000000000,104821.000000000,0.000000000,0.000000000,0.000000000,0.000000000,,,,,,,,,,,,,,,,,,,,,,,,,,,,,,,,,,,,,,,,,,,,,,,,,,,,,,,,,,,,,,,,,,,,,,,,,,,,,,,,,,,,,,,,,,,
1714408679.055152,,,,,,,,,,,,,,,,,,,,,,,,,,,,,,,,,,,,,,,,,,,,,,,,,,,,,,,,,,,,,,,,,,,,,,,,,,,,,,,,,,,,,,,,,,,,,,,,,,,,,,,,,,,,,,,,,,,,,,,,,,0.000000000,0.000000000,88451.000000000,0.000000000,0.000000000,0.000000000,,,,,,,,,,,,,,,,,,,,,,,,,,,,,,,,,,,,,,,,
1714408679.057181,,,,,,,,,,,,,,,,,,,,,,,,,,,,,,,,,,,,,,,,,,,,,,,,,,,,,,,,,,,,,,,,,,,,,,,,,,,,,0.000000000,0.000000000,0.794160187,0.002767541,0.016605247,-0.607475281,-0.055751506,0.087992787,0.029222347,,,,,,,,,,,,,,,,,,,,,,,,,,,,,,,,,,,,,,,,,,,,,,,,,,,,,,,,,,,,,,,,,,,,,,,,,,,,,,,,,,
1714408679.068253,,,,,,,,,,,,,,,,,,,,,,,,,,,,,,,,,,,,,,,,,,,,,,,,,,,,,,,,,,,,,,,,,,,,,,,,,,,,,,,,,,,,,,,,,,,,,,,,,,,,,,,,,,,,,,,,,,,,,,,,,,,,,,,,0.000000000,0.000000000,88464.000000000,15.000000000,2.000000000,14.000000000,,,,,,,,,,,,,,,,,,,,,,,,,,,,,,,,,,
1714408679.079159,,,,,,,,,,,,,,,,,,,,,,,,,,,,,,,,,,,,,,,,,,,,,,,,,,,,,,,,,,,,,,,,,,,,,,,,,,,,,,,,,,,,,,,,,,,,,,,,,,,,,,,,,,,,,,,,,,,,,,,,,,,,,,,,,,,,,,0.000000000,0.000000000,88476.000000000,0.000000000,0.000000000,0.000000000,0.000000000,,,,,,,,,,,,,,,,,,,,,,,,,,,
1714408679.092189,,,,,,,,,,,,,,,,,,,,,,,,,,,,,,,,,,,,,,,,,,,,,,,,,,,,,,,,,,,,,,,,,,,,,,,,,,,,,,,,,,,,,,,,,,,,,,,,,,,,,,,,,,,,,,,,,,,,,,,,,,,,,,,,,,,,,,,,,,,,,0.000000000,0.000000000,88488.000000000,0.000000000,0.000000000,0.000000000,0.000000000,,,,,,,,,,,,,,,,,,,,
1714408679.104194,,,,,,,,,,,,,,,,,,,,,,,,,,,,,,,,,,,,,,,,,,,,,,,,,,,,,,,,,,,,,,,,,,,,,,,,,,,,,,,,,,,,,,,,,,,,,,,,,,,,,,,,,,,,,,,,,,,,,,,,,,,,,,,,,,,,,,,,,,,,,,,,,,,,0.000000000,0.000000000,0.761911154,-0.005535082,-0.008302623,-0.647604644,0.491211891,0.145495713,-0.026442768,,,,,,,,,,,
1714408679.129275,,,,,,,,,,,,,,,,,,,,,,,,,,,,,,,,,,,,,,,,,,,,,,,,,,,0.000000000,0.000000000,104901.000000000,0.000000000,0.000000000,0.000000000,,,,,,,,,,,,,,,,,,,,,,,,,,,,,,,,,,,,,,,,,,,,,,,,,,,,,,,,,,,,,,,,,,,,,,,,,,,,,,,,,,,,,,,,,,,,,,,,,,,,,,,,,,,,,,,
1714408679.135233,,,,,,,,,,,,,,,,,,,,,,,,,,,,,,,,,,,,,,,,,,,,,,,,,,,,,,,,,0.000000000,0.000000000,104907.000000000,15.000000000,2.000000000,15.000000000,,,,,,,,,,,,,,,,,,,,,,,,,,,,,,,,,,,,,,,,,,,,,,,,,,,,,,,,,,,,,,,,,,,,,,,,,,,,,,,,,,,,,,,,,,,,,,,,,,,,,,,,,
1714408679.144367,,,,,,,,,,,,,,,,,,,,,,,,,,,,,,,,,,,,,,,,,,,,,,,,,,,,,,,,,,,,,,,0.000000000,0.000000000,104916.000000000,0.000000000,0.000000000,0.000000000,0.000000000,,,,,,,,,,,,,,,,,,,,,,,,,,,,,,,,,,,,,,,,,,,,,,,,,,,,,,,,,,,,,,,,,,,,,,,,,,,,,,,,,,,,,,,,,,,,,,,,,,
1714408679.150180,,,,,,,,,,,,,,,,,,,,,,,,,,,,,,,,,,,,,,,,,,,,,,,,,,,,,,,,,,,,,,,,,,,,,,0.000000000,0.000000000,104921.000000000,0.000000000,0.000000000,0.000000000,0.000000000,,,,,,,,,,,,,,,,,,,,,,,,,,,,,,,,,,,,,,,,,,,,,,,,,,,,,,,,,,,,,,,,,,,,,,,,,,,,,,,,,,,,,,,,,,,
1714408679.153272,,,,,,,,,,,,,,,,,,,,,,,,,,,,,,,,,,,,,,,,,,,,,,,,,,,,,,,,,,,,,,,,,,,,,,,,,,,,,,,,,,,,,,,,,,,,,,,,,,,,,,,,,,,,,,,,,,,,,,,,,,0.000000000,0.000000000,88551.000000000,0.000000000,0.000000000,0.000000000,,,,,,,,,,,,,,,,,,,,,,,,,,,,,,,,,,,,,,,,
1714408679.156311,,,,,,,,,,,,,,,,,,,,,,,,,,,,,,,,,,,,,,,,,,,,,,,,,,,,,,,,,,,,,,,,,,,,,,,,,,,,,0.000000000,0.000000000,0.787602603,-0.008302623,0.020756559,-0.615777910,-0.010509988,0.105012193,-0.002539110,,,,,,,,,,,,,,,,,,,,,,,,,,,,,,,,,,,,,,,,,,,,,,,,,,,,,,,,,,,,,,,,,,,,,,,,,,,,,,,,,,
1714408679.170258,,,,,,,,,,,,,,,,,,,,,,,,,,,,,,,,,,,,,,,,,,,,,,,,,,,,,,,,,,,,,,,,,,,,,,,,,,,,,,,,,,,,,,,,,,,,,,,,,,,,,,,,,,,,,,,,,,,,,,,,,,,,,,,,0.000000000,0.000000000,88566.000000000,15.000000000,2.000000000,14.000000000,,,,,,,,,,,,,,,,,,,,,,,,,,,,,,,,,,
1714408679.178189,,,,,,,,,,,,,,,,,,,,,,,,,,,,,,,,,,,,,,,,,,,,,,,,,,,,,,,,,,,,,,,,,,,,,,,,,,,,,,,,,,,,,,,,,,,,,,,,,,,,,,,,,,,,,,,,,,,,,,,,,,,,,,,,,,,,,,0.000000000,0.000000000,88576.000000000,0.000000000,0.000000000,0.000000000,0.000000000,,,,,,,,,,,,,,,,,,,,,,,,,,,
1714408679.191184,,,,,,,,,,,,,,,,,,,,,,,,,,,,,,,,,,,,,,,,,,,,,,,,,,,,,,,,,,,,,,,,,,,,,,,,,,,,,,,,,,,,,,,,,,,,,,,,,,,,,,,,,,,,,,,,,,,,,,,,,,,,,,,,,,,,,,,,,,,,,0.000000000,0.000000000,88588.000000000,0.000000000,0.000000000,0.000000000,0.000000000,,,,,,,,,,,,,,,,,,,,
1714408679.205160,,,,,,,,,,,,,,,,,,,,,,,,,,,,,,,,,,,,,,,,,,,,,,,,,,,,,,,,,,,,,,,,,,,,,,,,,,,,,,,,,,,,,,,,,,,,,,,,,,,,,,,,,,,,,,,,,,,,,,,,,,,,,,,,,,,,,,,,,,,,,,,,,,,,0.000000000,0.000000000,0.763028741,-0.005535082,-0.012453935,-0.646220863,0.475244790,0.165188774,-0.023038898,,,,,,,,,,,
1714408679.228329,,,,,,,,,,,,,,,,,,,,,,,,,,,,,,,,,,,,,,,,,,,,,,,,,,,0.000000000,0.000000000,104999.000000000,0.000000000,0.000000000,0.000000000,,,,,,,,,,,,,,,,,,,,,,,,,,,,,,,,,,,,,,,,,,,,,,,,,,,,,,,,,,,,,,,,,,,,,,,,,,,,,,,,,,,,,,,,,,,,,,,,,,,,,,,,,,,,,,,
1714408679.236362,,,,,,,,,,,,,,,,,,,,,,,,,,,,,,,,,,,,,,,,,,,,,,,,,,,,,,,,,0.000000000,0.000000000,105007.000000000,15.000000000,2.000000000,15.000000000,,,,,,,,,,,,,,,,,,,,,,,,,,,,,,,,,,,,,,,,,,,,,,,,,,,,,,,,,,,,,,,,,,,,,,,,,,,,,,,,,,,,,,,,,,,,,,,,,,,,,,,,,
1714408679.244245,,,,,,,,,,,,,,,,,,,,,,,,,,,,,,,,,,,,,,,,,,,,,,,,,,,,,,,,,,,,,,,0.000000000,0.000000000,105016.000000000,0.000000000,0.000000000,0.000000000,0.000000000,,,,,,,,,,,,,,,,,,,,,,,,,,,,,,,,,,,,,,,,,,,,,,,,,,,,,,,,,,,,,,,,,,,,,,,,,,,,,,,,,,,,,,,,,,,,,,,,,,
1714408679.249254,,,,,,,,,,,,,,,,,,,,,,,,,,,,,,,,,,,,,,,,,,,,,,,,,,,,,,,,,,,,,,,,,,,,,,0.000000000,0.000000000,105021.000000000,0.000000000,0.000000000,0.000000000,0.000000000,,,,,,,,,,,,,,,,,,,,,,,,,,,,,,,,,,,,,,,,,,,,,,,,,,,,,,,,,,,,,,,,,,,,,,,,,,,,,,,,,,,,,,,,,,,
1714408679.255262,,,,,,,,,,,,,,,,,,,,,,,,,,,,,,,,,,,,,,,,,,,,,,,,,,,,,,,,,,,,,,,,,,,,,,,,,,,,,,,,,,,,,,,,,,,,,,,,,,,,,,,,,,,,,,,,,,,,,,,,,,0.000000000,0.000000000,88651.000000000,0.000000000,0.000000000,0.000000000,,,,,,,,,,,,,,,,,,,,,,,,,,,,,,,,,,,,,,,,
1714408679.256341,,,,,,,,,,,,,,,,,,,,,,,,,,,,,,,,,,,,,,,,,,,,,,,,,,,,,,,,,,,,,,,,,,,,,,,,,,,,,0.000000000,0.000000000,0.790000975,-0.008302623,0.006918853,-0.613010347,-0.029287701,0.126745120,-0.027064938,,,,,,,,,,,,,,,,,,,,,,,,,,,,,,,,,,,,,,,,,,,,,,,,,,,,,,,,,,,,,,,,,,,,,,,,,,,,,,,,,,
1714408679.269390,,,,,,,,,,,,,,,,,,,,,,,,,,,,,,,,,,,,,,,,,,,,,,,,,,,,,,,,,,,,,,,,,,,,,,,,,,,,,,,,,,,,,,,,,,,,,,,,,,,,,,,,,,,,,,,,,,,,,,,,,,,,,,,,0.000000000,0.000000000,88665.000000000,15.000000000,2.000000000,15.000000000,,,,,,,,,,,,,,,,,,,,,,,,,,,,,,,,,,
1714408679.279202,,,,,,,,,,,,,,,,,,,,,,,,,,,,,,,,,,,,,,,,,,,,,,,,,,,,,,,,,,,,,,,,,,,,,,,,,,,,,,,,,,,,,,,,,,,,,,,,,,,,,,,,,,,,,,,,,,,,,,,,,,,,,,,,,,,,,,0.000000000,0.000000000,88676.000000000,0.000000000,0.000000000,0.000000000,0.000000000,,,,,,,,,,,,,,,,,,,,,,,,,,,
1714408679.293276,,,,,,,,,,,,,,,,,,,,,,,,,,,,,,,,,,,,,,,,,,,,,,,,,,,,,,,,,,,,,,,,,,,,,,,,,,,,,,,,,,,,,,,,,,,,,,,,,,,,,,,,,,,,,,,,,,,,,,,,,,,,,,,,,,,,,,,,,,,,,0.000000000,0.000000000,88688.000000000,0.000000000,0.000000000,0.000000000,0.000000000,,,,,,,,,,,,,,,,,,,,
1714408679.303211,,,,,,,,,,,,,,,,,,,,,,,,,,,,,,,,,,,,,,,,,,,,,,,,,,,,,,,,,,,,,,,,,,,,,,,,,,,,,,,,,,,,,,,,,,,,,,,,,,,,,,,,,,,,,,,,,,,,,,,,,,,,,,,,,,,,,,,,,,,,,,,,,,,,0.000000000,0.000000000,0.763057590,-0.006918853,-0.009686395,-0.646220863,0.468692333,0.181824312,-0.028172065,,,,,,,,,,,
1714408679.329345,,,,,,,,,,,,,,,,,,,,,,,,,,,,,,,,,,,,,,,,,,,,,,,,,,,0.000000000,0.000000000,105099.000000000,0.000000000,0.000000000,0.000000000,,,,,,,,,,,,,,,,,,,,,,,,,,,,,,,,,,,,,,,,,,,,,,,,,,,,,,,,,,,,,,,,,,,,,,,,,,,,,,,,,,,,,,,,,,,,,,,,,,,,,,,,,,,,,,,
1714408679.335357,,,,,,,,,,,,,,,,,,,,,,,,,,,,,,,,,,,,,,,,,,,,,,,,,,,,,,,,,0.000000000,0.000000000,105107.000000000,15.000000000,2.000000000,15.000000000,,,,,,,,,,,,,,,,,,,,,,,,,,,,,,,,,,,,,,,,,,,,,,,,,,,,,,,,,,,,,,,,,,,,,,,,,,,,,,,,,,,,,,,,,,,,,,,,,,,,,,,,,
1714408679.345268,,,,,,,,,,,,,,,,,,,,,,,,,,,,,,,,,,,,,,,,,,,,,,,,,,,,,,,,,,,,,,,0.000000000,0.000000000,105116.000000000,0.000000000,0.000000000,0.000000000,0.000000000,,,,,,,,,,,,,,,,,,,,,,,,,,,,,,,,,,,,,,,,,,,,,,,,,,,,,,,,,,,,,,,,,,,,,,,,,,,,,,,,,,,,,,,,,,,,,,,,,,
1714408679.349296,,,,,,,,,,,,,,,,,,,,,,,,,,,,,,,,,,,,,,,,,,,,,,,,,,,,,,,,,,,,,,,,,,,,,,0.000000000,0.000000000,105121.000000000,0.000000000,0.000000000,0.000000000,0.000000000,,,,,,,,,,,,,,,,,,,,,,,,,,,,,,,,,,,,,,,,,,,,,,,,,,,,,,,,,,,,,,,,,,,,,,,,,,,,,,,,,,,,,,,,,,,
1714408679.354194,,,,,,,,,,,,,,,,,,,,,,,,,,,,,,,,,,,,,,,,,,,,,,,,,,,,,,,,,,,,,,,,,,,,,,,,,,,,,,,,,,,,,,,,,,,,,,,,,,,,,,,,,,,,,,,,,,,,,,,,,,0.000000000,0.000000000,88751.000000000,0.000000000,0.000000000,0.000000000,,,,,,,,,,,,,,,,,,,,,,,,,,,,,,,,,,,,,,,,
1714408679.355256,,,,,,,,,,,,,,,,,,,,,,,,,,,,,,,,,,,,,,,,,,,,,,,,,,,,,,,,,,,,,,,,,,,,,,,,,,,,,0.000000000,0.000000000,0.792184234,-0.006918853,0.000000000,-0.610242784,-0.046793904,0.138484985,-0.025060482,,,,,,,,,,,,,,,,,,,,,,,,,,,,,,,,,,,,,,,,,,,,,,,,,,,,,,,,,,,,,,,,,,,,,,,,,,,,,,,,,,
1714408679.368345,,,,,,,,,,,,,,,,,,,,,,,,,,,,,,,,,,,,,,,,,,,,,,,,,,,,,,,,,,,,,,,,,,,,,,,,,,,,,,,,,,,,,,,,,,,,,,,,,,,,,,,,,,,,,,,,,,,,,,,,,,,,,,,,0.000000000,0.000000000,88765.000000000,15.000000000,2.000000000,15.000000000,,,,,,,,,,,,,,,,,,,,,,,,,,,,,,,,,,
1714408679.379362,,,,,,,,,,,,,,,,,,,,,,,,,,,,,,,,,,,,,,,,,,,,,,,,,,,,,,,,,,,,,,,,,,,,,,,,,,,,,,,,,,,,,,,,,,,,,,,,,,,,,,,,,,,,,,,,,,,,,,,,,,,,,,,,,,,,,,0.000000000,0.000000000,88776.000000000,0.000000000,0.000000000,0.000000000,0.000000000,,,,,,,,,,,,,,,,,,,,,,,,,,,
1714408679.394295,,,,,,,,,,,,,,,,,,,,,,,,,,,,,,,,,,,,,,,,,,,,,,,,,,,,,,,,,,,,,,,,,,,,,,,,,,,,,,,,,,,,,,,,,,,,,,,,,,,,,,,,,,,,,,,,,,,,,,,,,,,,,,,,,,,,,,,,,,,,,0.000000000,0.000000000,88788.000000000,0.000000000,0.000000000,0.000000000,0.000000000,,,,,,,,,,,,,,,,,,,,
1714408679.404171,,,,,,,,,,,,,,,,,,,,,,,,,,,,,,,,,,,,,,,,,,,,,,,,,,,,,,,,,,,,,,,,,,,,,,,,,,,,,,,,,,,,,,,,,,,,,,,,,,,,,,,,,,,,,,,,,,,,,,,,,,,,,,,,,,,,,,,,,,,,,,,,,,,,0.000000000,0.000000000,0.761930048,-0.001383771,0.008302623,-0.647604644,0.496423572,0.142539367,-0.013208668,,,,,,,,,,,
1714408679.427345,,,,,,,,,,,,,,,,,,,,,,,,,,,,,,,,,,,,,,,,,,,,,,,,,,,0.000000000,0.000000000,105199.000000000,0.000000000,0.000000000,0.000000000,,,,,,,,,,,,,,,,,,,,,,,,,,,,,,,,,,,,,,,,,,,,,,,,,,,,,,,,,,,,,,,,,,,,,,,,,,,,,,,,,,,,,,,,,,,,,,,,,,,,,,,,,,,,,,,
1714408679.430457,,,,,,,,,,,,,,,,,,,,,,,,,,,,,,,,,,,,,,,,,,,,0.000000000,0.000000000,469.000000000,0.000000000,469.000000000,477.000000000,476.000000000,,,,,,,,,,,,,,,,,,,,,,,,,,,,,,,,,,,,,,,,,,,,,,,,,,,,,,,,,,,,,,,,,,,,,,,,,,,,,,,,,,,,,,,,,,,,,,,,,,,,,,,,,,,,,,,,,,,,,
1714408679.436193,,,,,,,,,,,,,,,,,,,,,,,,,,,,,,,,,,,,,,,,,,,,,,,,,,,,,,,,,0.000000000,0.000000000,105207.000000000,15.000000000,2.000000000,15.000000000,,,,,,,,,,,,,,,,,,,,,,,,,,,,,,,,,,,,,,,,,,,,,,,,,,,,,,,,,,,,,,,,,,,,,,,,,,,,,,,,,,,,,,,,,,,,,,,,,,,,,,,,,
1714408679.446350,,,,,,,,,,,,,,,,,,,,,,,,,,,,,,,,,,,,,,,,,,,,,,,,,,,,,,,,,,,,,,,0.000000000,0.000000000,105216.000000000,0.000000000,0.000000000,0.000000000,0.000000000,,,,,,,,,,,,,,,,,,,,,,,,,,,,,,,,,,,,,,,,,,,,,,,,,,,,,,,,,,,,,,,,,,,,,,,,,,,,,,,,,,,,,,,,,,,,,,,,,,
1714408679.453280,,,,,,,,,,,,,,,,,,,,,,,,,,,,,,,,,,,,,,,,,,,,,,,,,,,,,,,,,,,,,,,,,,,,,,,,,,,,,,,,,,,,,,,,,,,,,,,,,,,,,,,,,,,,,,,,,,,,,,,,,,0.000000000,0.000000000,88851.000000000,0.000000000,0.000000000,0.000000000,,,,,,,,,,,,,,,,,,,,,,,,,,,,,,,,,,,,,,,,
1714408679.454362,,,,,,,,,,,,,,,,,,,,,,,,,,,,,,,,,,,,,,,,,,,,,,,,,,,,,,,,,,,,,,,,,,,,,,0.000000000,0.000000000,105221.000000000,0.000000000,0.000000000,0.000000000,0.000000000,,,,,,,,,,,,,,,,,,,,,,,,,,,,,,,,,,,,,,,,,,,,,,,,,,,,,,,,,,,,,,,,,,,,,,,,,,,,,,,,,,,,,,,,,,,
1714408679.456281,,,,,,,,,,,,,,,,,,,,,,,,,,,,,,,,,,,,,,,,,,,,,,,,,,,,,,,,,,,,,,,,,,,,,,,,,,,,,0.000000000,0.000000000,0.793196321,-0.002767541,0.011070165,-0.608859062,-0.035050206,0.115953222,-0.004925804,,,,,,,,,,,,,,,,,,,,,,,,,,,,,,,,,,,,,,,,,,,,,,,,,,,,,,,,,,,,,,,,,,,,,,,,,,,,,,,,,,
1714408679.463285,,,,,,,,,,,,,,,,,,,,,,,,,,,,,,,,,,,,,,,,,,,,,,,,,,,,,,,,,,,,,,,,,,,,,,,,,,,,,,,,,,,,,,4.059000015,0.000000000,0.000000000,7.000000000,0.000000000,0.000000000,0.000000000,477.000000000,0.000000000,51.000000000,14.000000000,,,,,,,,,,,,,,,,,,,,,,,,,,,,,,,,,,,,,,,,,,,,,,,,,,,,,,,,,,,,,,,,,,,,,,,
1714408679.468277,,,,,,,,,,,,,,,,,,,,,,,,,,,,,,,,,,,,,,,,,,,,,,,,,,,,,,,,,,,,,,,,,,,,,,,,,,,,,,,,,,,,,,,,,,,,,,,,,,,,,,,,,,,,,,,,,,,,,,,,,,,,,,,,0.000000000,0.000000000,88864.000000000,15.000000000,2.000000000,15.000000000,,,,,,,,,,,,,,,,,,,,,,,,,,,,,,,,,,
1714408679.478305,,,,,,,,,,,,,,,,,,,,,,,,,,,,,,,,,,,,,,,,,,,,,,,,,,,,,,,,,,,,,,,,,,,,,,,,,,,,,,,,,,,,,,,,,,,,,,,,,,,,,,,,,,,,,,,,,,,,,,,,,,,,,,,,,,,,,,0.000000000,0.000000000,88876.000000000,0.000000000,0.000000000,0.000000000,0.000000000,,,,,,,,,,,,,,,,,,,,,,,,,,,
1714408679.490141,,,,,,,,,,,,,,,,,,,,,,,,,,,,,,,,,,,,,,,,,,,,,,,,,,,,,,,,,,,,,,,,,,,,,,,,,,,,,,,,,,,,,,,,,,,,,,,,,,,,,,,,,,,,,,,,,,,,,,,,,,,,,,,,,,,,,,,,,,,,,0.000000000,0.000000000,88888.000000000,0.000000000,0.000000000,0.000000000,0.000000000,,,,,,,,,,,,,,,,,,,,
1714408679.505344,,,,,,,,,,,,,,,,,,,,,,,,,,,,,,,,,,,,,,,,,,,,,,,,,,,,,,,,,,,,,,,,,,,,,,,,,,,,,,,,,,,,,,,,,,,,,,,,,,,,,,,,,,,,,,,,,,,,,,,,,,,,,,,,,,,,,,,,,,,,,,,,,,,,0.000000000,0.000000000,0.764269948,-0.002767541,0.008302623,-0.644837081,0.500972152,0.135347426,0.006304140,,,,,,,,,,,
1714408679.527241,,,,,,,,,,,,,,,,,,,,,,,,,,,,,,,,,,,,,,,,,,,,,,,,,,,0.000000000,0.000000000,105299.000000000,0.000000000,0.000000000,0.000000000,,,,,,,,,,,,,,,,,,,,,,,,,,,,,,,,,,,,,,,,,,,,,,,,,,,,,,,,,,,,,,,,,,,,,,,,,,,,,,,,,,,,,,,,,,,,,,,,,,,,,,,,,,,,,,,
1714408679.535226,,,,,,,,,,,,,,,,,,,,,,,,,,,,,,,,,,,,,,,,,,,,,,,,,,,,,,,,,0.000000000,0.000000000,105307.000000000,15.000000000,2.000000000,15.000000000,,,,,,,,,,,,,,,,,,,,,,,,,,,,,,,,,,,,,,,,,,,,,,,,,,,,,,,,,,,,,,,,,,,,,,,,,,,,,,,,,,,,,,,,,,,,,,,,,,,,,,,,,
1714408679.541272,,,,,,,,,,,,,,,,,,,,,,,,,,,,,,,,,,,,,,,,,,,,,,,,,,,,,,,,,,,,,,,,,,,,,,,,,,,,,,,,,,,,,,,,,,,,,,,,,,,,,,,,,,,,,,,,,,,0.000000000,0.000000000,475.000000000,0.000000000,475.000000000,475.000000000,474.000000000,,,,,,,,,,,,,,,,,,,,,,,,,,,,,,,,,,,,,,,,,,,,,,
1714408679.545294,,,,,,,,,,,,,,,,,,,,,,,,,,,,,,,,,,,,,,,,,,,,,,,,,,,,,,,,,,,,,,,0.000000000,0.000000000,105316.000000000,0.000000000,0.000000000,0.000000000,0.000000000,,,,,,,,,,,,,,,,,,,,,,,,,,,,,,,,,,,,,,,,,,,,,,,,,,,,,,,,,,,,,,,,,,,,,,,,,,,,,,,,,,,,,,,,,,,,,,,,,,
1714408679.550188,,,,,,,,,,,,,,,,,,,,,,,,,,,,,,,,,,,,,,,,,,,,,,,,,,,,,,,,,,,,,,,,,,,,,,0.000000000,0.000000000,105321.000000000,0.000000000,0.000000000,0.000000000,0.000000000,,,,,,,,,,,,,,,,,,,,,,,,,,,,,,,,,,,,,,,,,,,,,,,,,,,,,,,,,,,,,,,,,,,,,,,,,,,,,,,,,,,,,,,,,,,
1714408679.553125,,,,,,,,,,,,,,,,,,,,,,,,,,,,,,,,,,,,,,,,,,,,,,,,,,,,,,,,,,,,,,,,,,,,,,,,,,,,,,,,,,,,,,,,,,,,,,,,,,,,,,,,,,,,,,,,,,,,,,,,,,0.000000000,0.000000000,88951.000000000,0.000000000,0.000000000,0.000000000,,,,,,,,,,,,,,,,,,,,,,,,,,,,,,,,,,,,,,,,
1714408679.556234,,,,,,,,,,,,,,,,,,,,,,,,,,,,,,,,,,,,,,,,,,,,,,,,,,,,,,,,,,,,,,,,,,,,,,,,,,,,,0.000000000,0.000000000,0.791130841,0.002767541,0.004151312,-0.611626625,-0.065188937,0.103793271,0.051228475,,,,,,,,,,,,,,,,,,,,,,,,,,,,,,,,,,,,,,,,,,,,,,,,,,,,,,,,,,,,,,,,,,,,,,,,,,,,,,,,,,
1714408679.565300,,,,,,,,,,,,,,,,,,,,,,,,,,,,,,,,,,,,,,,,,,,,,,,,,,,,,,,,,,,,,,,,,,,,,,,,,,,,,,,,,,,,,,,,,,,,,,,,,,,,,,,,,,,,,,,,,,,,,,,,,,,,,,,,0.000000000,0.000000000,88964.000000000,15.000000000,2.000000000,15.000000000,,,,,,,,,,,,,,,,,,,,,,,,,,,,,,,,,,
1714408679.579175,,,,,,,,,,,,,,,,,,,,,,,,,,,,,,,,,,,,,,,,,,,,,,,,,,,,,,,,,,,,,,,,,,,,,,,,,,,,,,,,,,,,,,,,,,,,,,,,,,,,,,,,,,,,,,,,,,,,,,,,,,,,,,,,,,,,,,0.000000000,0.000000000,88976.000000000,0.000000000,0.000000000,0.000000000,0.000000000,,,,,,,,,,,,,,,,,,,,,,,,,,,
1714408679.593198,,,,,,,,,,,,,,,,,,,,,,,,,,,,,,,,,,,,,,,,,,,,,,,,,,,,,,,,,,,,,,,,,,,,,,,,,,,,,,,,,,,,,,,,,,,,,,,,,,,,,,,,,,,,,,,,,,,,,,,,,,,,,,,,,,,,,,,,,,,,,0.000000000,0.000000000,88988.000000000,0.000000000,0.000000000,0.000000000,0.000000000,,,,,,,,,,,,,,,,,,,,
1714408679.604235,,,,,,,,,,,,,,,,,,,,,,,,,,,,,,,,,,,,,,,,,,,,,,,,,,,,,,,,,,,,,,,,,,,,,,,,,,,,,,,,,,,,,,,,,,,,,,,,,,,,,,,,,,,,,,,,,,,,,,,,,,,,,,,,,,,,,,,,,,,,,,,,,,,,0.000000000,0.000000000,0.763119102,-0.004151312,0.005535082,-0.646220863,0.500508010,0.133311719,0.009394122,,,,,,,,,,,
1714408679.617263,,,,,,,,,,,,,,,,,,,,,,,,,,,,,,,,,,,,,,,,,,,,,,,,,,,,,,,,,,,,,,,,,,,,,,,,,,,,,,,,,,,,,,,,,,,,,,,,,,,,,,,,,,,,,,,,,,,,,,,,,,,,,,,,,,,,,,,,,,,,,,,,,,,,,,,,,,,,,3.763000011,0.000000000,0.000000000,6.000000000,0.000000000,0.000000000,0.000000000,473.000000000,0.000000000,46.000000000,14.000000000
1714408679.628280,,,,,,,,,,,,,,,,,,,,,,,,,,,,,,,,,,,,,,,,,,,,,,,,,,,0.000000000,0.000000000,105399.000000000,0.000000000,0.000000000,0.000000000,,,,,,,,,,,,,,,,,,,,,,,,,,,,,,,,,,,,,,,,,,,,,,,,,,,,,,,,,,,,,,,,,,,,,,,,,,,,,,,,,,,,,,,,,,,,,,,,,,,,,,,,,,,,,,,
1714408679.635255,,,,,,,,,,,,,,,,,,,,,,,,,,,,,,,,,,,,,,,,,,,,,,,,,,,,,,,,,0.000000000,0.000000000,105407.000000000,15.000000000,2.000000000,15.000000000,,,,,,,,,,,,,,,,,,,,,,,,,,,,,,,,,,,,,,,,,,,,,,,,,,,,,,,,,,,,,,,,,,,,,,,,,,,,,,,,,,,,,,,,,,,,,,,,,,,,,,,,,
1714408679.645230,,,,,,,,,,,,,,,,,,,,,,,,,,,,,,,,,,,,,,,,,,,,,,,,,,,,,,,,,,,,,,,0.000000000,0.000000000,105416.000000000,0.000000000,0.000000000,0.000000000,0.000000000,,,,,,,,,,,,,,,,,,,,,,,,,,,,,,,,,,,,,,,,,,,,,,,,,,,,,,,,,,,,,,,,,,,,,,,,,,,,,,,,,,,,,,,,,,,,,,,,,,
1714408679.649289,,,,,,,,,,,,,,,,,,,,,,,,,,,,,,,,,,,,,,,,,,,,,,,,,,,,,,,,,,,,,,,,,,,,,,0.000000000,0.000000000,105421.000000000,0.000000000,0.000000000,0.000000000,0.000000000,,,,,,,,,,,,,,,,,,,,,,,,,,,,,,,,,,,,,,,,,,,,,,,,,,,,,,,,,,,,,,,,,,,,,,,,,,,,,,,,,,,,,,,,,,,
1714408679.654170,,,,,,,,,,,,,,,,,,,,,,,,,,,,,,,,,,,,,,,,,,,,,,,,,,,,,,,,,,,,,,,,,,,,,,,,,,,,,,,,,,,,,,,,,,,,,,,,,,,,,,,,,,,,,,,,,,,,,,,,,,0.000000000,0.000000000,89051.000000000,0.000000000,0.000000000,0.000000000,,,,,,,,,,,,,,,,,,,,,,,,,,,,,,,,,,,,,,,,
1714408679.655246,,,,,,,,,,,,,,,,,,,,,,,,,,,,,,,,,,,,,,,,,,,,,,,,,,,,,,,,,,,,,,,,,,,,,,,,,,,,,0.000000000,0.000000000,0.788644910,-0.008302623,0.022140330,-0.614394128,-0.007424065,0.092975296,0.010132711,,,,,,,,,,,,,,,,,,,,,,,,,,,,,,,,,,,,,,,,,,,,,,,,,,,,,,,,,,,,,,,,,,,,,,,,,,,,,,,,,,
1714408679.667209,,,,,,,,,,,,,,,,,,,,,,,,,,,,,,,,,,,,,,,,,,,,,,,,,,,,,,,,,,,,,,,,,,,,,,,,,,,,,,,,,,,,,,,,,,,,,,,,,,,,,,,,,,,,,,,,,,,,,,,,,,,,,,,,0.000000000,0.000000000,89064.000000000,15.000000000,2.000000000,15.000000000,,,,,,,,,,,,,,,,,,,,,,,,,,,,,,,,,,
1714408679.679205,,,,,,,,,,,,,,,,,,,,,,,,,,,,,,,,,,,,,,,,,,,,,,,,,,,,,,,,,,,,,,,,,,,,,,,,,,,,,,,,,,,,,,,,,,,,,,,,,,,,,,,,,,,,,,,,,,,,,,,,,,,,,,,,,,,,,,0.000000000,0.000000000,89076.000000000,0.000000000,0.000000000,0.000000000,0.000000000,,,,,,,,,,,,,,,,,,,,,,,,,,,
1714408679.691182,,,,,,,,,,,,,,,,,,,,,,,,,,,,,,,,,,,,,,,,,,,,,,,,,,,,,,,,,,,,,,,,,,,,,,,,,,,,,,,,,,,,,,,,,,,,,,,,,,,,,,,,,,,,,,,,,,,,,,,,,,,,,,,,,,,,,,,,,,,,,0.000000000,0.000000000,89088.000000000,0.000000000,0.000000000,0.000000000,0.000000000,,,,,,,,,,,,,,,,,,,,
1714408679.705251,,,,,,,,,,,,,,,,,,,,,,,,,,,,,,,,,,,,,,,,,,,,,,,,,,,,,,,,,,,,,,,,,,,,,,,,,,,,,,,,,,,,,,,,,,,,,,,,,,,,,,,,,,,,,,,,,,,,,,,,,,,,,,,,,,,,,,,,,,,,,,,,,,,,0.000000000,0.000000000,0.766606450,-0.005535082,0.005535082,-0.642069519,0.507287323,0.131496578,0.019864235,,,,,,,,,,,
1714408679.728278,,,,,,,,,,,,,,,,,,,,,,,,,,,,,,,,,,,,,,,,,,,,,,,,,,,0.000000000,0.000000000,105499.000000000,0.000000000,0.000000000,0.000000000,,,,,,,,,,,,,,,,,,,,,,,,,,,,,,,,,,,,,,,,,,,,,,,,,,,,,,,,,,,,,,,,,,,,,,,,,,,,,,,,,,,,,,,,,,,,,,,,,,,,,,,,,,,,,,,
1714408679.736283,,,,,,,,,,,,,,,,,,,,,,,,,,,,,,,,,,,,,,,,,,,,,,,,,,,,,,,,,0.000000000,0.000000000,105507.000000000,15.000000000,2.000000000,15.000000000,,,,,,,,,,,,,,,,,,,,,,,,,,,,,,,,,,,,,,,,,,,,,,,,,,,,,,,,,,,,,,,,,,,,,,,,,,,,,,,,,,,,,,,,,,,,,,,,,,,,,,,,,
1714408679.744171,,,,,,,,,,,,,,,,,,,,,,,,,,,,,,,,,,,,,,,,,,,,,,,,,,,,,,,,,,,,,,,0.000000000,0.000000000,105516.000000000,0.000000000,0.000000000,0.000000000,0.000000000,,,,,,,,,,,,,,,,,,,,,,,,,,,,,,,,,,,,,,,,,,,,,,,,,,,,,,,,,,,,,,,,,,,,,,,,,,,,,,,,,,,,,,,,,,,,,,,,,,
1714408679.750261,,,,,,,,,,,,,,,,,,,,,,,,,,,,,,,,,,,,,,,,,,,,,,,,,,,,,,,,,,,,,,,,,,,,,,0.000000000,0.000000000,105521.000000000,0.000000000,0.000000000,0.000000000,0.000000000,,,,,,,,,,,,,,,,,,,,,,,,,,,,,,,,,,,,,,,,,,,,,,,,,,,,,,,,,,,,,,,,,,,,,,,,,,,,,,,,,,,,,,,,,,,
1714408679.753175,,,,,,,,,,,,,,,,,,,,,,,,,,,,,,,,,,,,,,,,,,,,,,,,,,,,,,,,,,,,,,,,,,,,,,,,,,,,,,,,,,,,,,,,,,,,,,,,,,,,,,,,,,,,,,,,,,,,,,,,,,0.000000000,0.000000000,89151.000000000,0.000000000,0.000000000,0.000000000,,,,,,,,,,,,,,,,,,,,,,,,,,,,,,,,,,,,,,,,
1714408679.755246,,,,,,,,,,,,,,,,,,,,,,,,,,,,,,,,,,,,,,,,,,,,,,,,,,,,,,,,,,,,,,,,,,,,,,,,,,,,,0.000000000,0.000000000,0.785499215,-0.008302623,0.017989017,-0.618545413,-0.003889345,0.093581513,0.002906686,,,,,,,,,,,,,,,,,,,,,,,,,,,,,,,,,,,,,,,,,,,,,,,,,,,,,,,,,,,,,,,,,,,,,,,,,,,,,,,,,,
1714408679.767218,,,,,,,,,,,,,,,,,,,,,,,,,,,,,,,,,,,,,,,,,,,,,,,,,,,,,,,,,,,,,,,,,,,,,,,,,,,,,,,,,,,,,,,,,,,,,,,,,,,,,,,,,,,,,,,,,,,,,,,,,,,,,,,,0.000000000,0.000000000,89164.000000000,15.000000000,2.000000000,15.000000000,,,,,,,,,,,,,,,,,,,,,,,,,,,,,,,,,,
1714408679.778172,,,,,,,,,,,,,,,,,,,,,,,,,,,,,,,,,,,,,,,,,,,,,,,,,,,,,,,,,,,,,,,,,,,,,,,,,,,,,,,,,,,,,,,,,,,,,,,,,,,,,,,,,,,,,,,,,,,,,,,,,,,,,,,,,,,,,,0.000000000,0.000000000,89176.000000000,0.000000000,0.000000000,0.000000000,0.000000000,,,,,,,,,,,,,,,,,,,,,,,,,,,
1714408679.791284,,,,,,,,,,,,,,,,,,,,,,,,,,,,,,,,,,,,,,,,,,,,,,,,,,,,,,,,,,,,,,,,,,,,,,,,,,,,,,,,,,,,,,,,,,,,,,,,,,,,,,,,,,,,,,,,,,,,,,,,,,,,,,,,,,,,,,,,,,,,,0.000000000,0.000000000,89188.000000000,0.000000000,0.000000000,0.000000000,0.000000000,,,,,,,,,,,,,,,,,,,,
1714408679.803257,,,,,,,,,,,,,,,,,,,,,,,,,,,,,,,,,,,,,,,,,,,,,,,,,,,,,,,,,,,,,,,,,,,,,,,,,,,,,,,,,,,,,,,,,,,,,,,,,,,,,,,,,,,,,,,,,,,,,,,,,,,,,,,,,,,,,,,,,,,,,,,,,,,,0.000000000,0.000000000,0.761886060,-0.008302623,-0.008302623,-0.647604644,0.479528427,0.169723958,0.002578691,,,,,,,,,,,
1714408679.827247,,,,,,,,,,,,,,,,,,,,,,,,,,,,,,,,,,,,,,,,,,,,,,,,,,,0.000000000,0.000000000,105599.000000000,0.000000000,0.000000000,0.000000000,,,,,,,,,,,,,,,,,,,,,,,,,,,,,,,,,,,,,,,,,,,,,,,,,,,,,,,,,,,,,,,,,,,,,,,,,,,,,,,,,,,,,,,,,,,,,,,,,,,,,,,,,,,,,,,
1714408679.835176,,,,,,,,,,,,,,,,,,,,,,,,,,,,,,,,,,,,,,,,,,,,,,,,,,,,,,,,,0.000000000,0.000000000,105607.000000000,15.000000000,2.000000000,15.000000000,,,,,,,,,,,,,,,,,,,,,,,,,,,,,,,,,,,,,,,,,,,,,,,,,,,,,,,,,,,,,,,,,,,,,,,,,,,,,,,,,,,,,,,,,,,,,,,,,,,,,,,,,
1714408679.844291,,,,,,,,,,,,,,,,,,,,,,,,,,,,,,,,,,,,,,,,,,,,,,,,,,,,,,,,,,,,,,,0.000000000,0.000000000,105616.000000000,0.000000000,0.000000000,0.000000000,0.000000000,,,,,,,,,,,,,,,,,,,,,,,,,,,,,,,,,,,,,,,,,,,,,,,,,,,,,,,,,,,,,,,,,,,,,,,,,,,,,,,,,,,,,,,,,,,,,,,,,,
1714408679.850271,,,,,,,,,,,,,,,,,,,,,,,,,,,,,,,,,,,,,,,,,,,,,,,,,,,,,,,,,,,,,,,,,,,,,,0.000000000,0.000000000,105621.000000000,0.000000000,0.000000000,0.000000000,0.000000000,,,,,,,,,,,,,,,,,,,,,,,,,,,,,,,,,,,,,,,,,,,,,,,,,,,,,,,,,,,,,,,,,,,,,,,,,,,,,,,,,,,,,,,,,,,
